[{"LAYER":"Unknown Point Feature","SITE_ID":"12D","Latitude":-17.821393,"longitude":-63.130158},{"LAYER":"Unknown Point Feature","SITE_ID":"16F","Latitude":-16.502982,"longitude":-68.223371},{"LAYER":"Unknown Point Feature","SITE_ID":"1MC","Latitude":-16.648105,"longitude":-65.431243},{"LAYER":"Unknown Point Feature","SITE_ID":"25EN","Latitude":-17.36138,"longitude":-63.27585},{"LAYER":"Unknown Point Feature","SITE_ID":"25J","Latitude":-16.506222,"longitude":-68.21484},{"LAYER":"Unknown Point Feature","SITE_ID":"26M","Latitude":-17.876694,"longitude":-63.161723},{"LAYER":"Unknown Point Feature","SITE_ID":"3ANI","Latitude":-17.763609,"longitude":-63.162916},{"LAYER":"Unknown Point Feature","SITE_ID":"4EQ","Latitude":-17.36017,"longitude":-66.228749},{"LAYER":"Unknown Point Feature","SITE_ID":"5RM","Latitude":-11.01745,"longitude":-68.78413},{"LAYER":"Unknown Point Feature","SITE_ID":"6OC","Latitude":-17.960891,"longitude":-67.110091},{"LAYER":"Unknown Point Feature","SITE_ID":"8VA","Latitude":-17.774474,"longitude":-63.169015},{"LAYER":"Unknown Point Feature","SITE_ID":"A6A","Latitude":-17.978324,"longitude":-67.11162},{"LAYER":"Unknown Point Feature","SITE_ID":"AAC","Latitude":-16.51531,"longitude":-68.06253},{"LAYER":"Unknown Point Feature","SITE_ID":"AAL","Latitude":-16.52061,"longitude":-68.180926},{"LAYER":"Unknown Point Feature","SITE_ID":"AAP","Latitude":-19.54634,"longitude":-65.72549},{"LAYER":"Unknown Point Feature","SITE_ID":"ABA","Latitude":-17.794606,"longitude":-63.207519},{"LAYER":"Unknown Point Feature","SITE_ID":"ABC","Latitude":-20.993925,"longitude":-65.239226},{"LAYER":"Unknown Point Feature","SITE_ID":"ABG","Latitude":-17.356369,"longitude":-66.1769},{"LAYER":"Unknown Point Feature","SITE_ID":"ABO","Latitude":-17.845128,"longitude":-63.170462},{"LAYER":"Unknown Point Feature","SITE_ID":"ABP","Latitude":-18.902547,"longitude":-63.401197},{"LAYER":"Unknown Point Feature","SITE_ID":"ABR","Latitude":-16.514583,"longitude":-68.1525},{"LAYER":"Unknown Point Feature","SITE_ID":"ACB","Latitude":-17.392858,"longitude":-66.1745556},{"LAYER":"Unknown Point Feature","SITE_ID":"ACC","Latitude":-17.763407,"longitude":-63.18416},{"LAYER":"Unknown Point Feature","SITE_ID":"ACH","Latitude":-16.53031,"longitude":-68.07664},{"LAYER":"Unknown Point Feature","SITE_ID":"ACHR","Latitude":-18.154887,"longitude":-63.825836},{"LAYER":"Unknown Point Feature","SITE_ID":"ACI","Latitude":-16.04175,"longitude":-68.683306},{"LAYER":"Unknown Point Feature","SITE_ID":"ACL","Latitude":-16.583583,"longitude":-68.164611},{"LAYER":"Unknown Point Feature","SITE_ID":"ACO","Latitude":-16.50507,"longitude":-68.13703},{"LAYER":"Unknown Point Feature","SITE_ID":"ACQ","Latitude":-15.200089,"longitude":-68.229993},{"LAYER":"Unknown Point Feature","SITE_ID":"ACS","Latitude":-16.47903,"longitude":-68.193562},{"LAYER":"Unknown Point Feature","SITE_ID":"ACSI","Latitude":-18.0240634,"longitude":-66.0574137},{"LAYER":"Unknown Point Feature","SITE_ID":"ACT","Latitude":-16.4657,"longitude":-68.11134},{"LAYER":"Unknown Point Feature","SITE_ID":"ACV","Latitude":-16.520306,"longitude":-68.155583},{"LAYER":"Unknown Point Feature","SITE_ID":"ADC","Latitude":-16.522954,"longitude":-68.211587},{"LAYER":"Unknown Point Feature","SITE_ID":"ADF","Latitude":-16.537837,"longitude":-68.049161},{"LAYER":"Unknown Point Feature","SITE_ID":"ADL","Latitude":-19.024028,"longitude":-65.259341},{"LAYER":"Unknown Point Feature","SITE_ID":"ADM","Latitude":-18.77879,"longitude":-67.50833},{"LAYER":"Unknown Point Feature","SITE_ID":"ADPS","Latitude":-16.509818,"longitude":-68.119868},{"LAYER":"Unknown Point Feature","SITE_ID":"ADS","Latitude":-14.810559,"longitude":-64.881497},{"LAYER":"Unknown Point Feature","SITE_ID":"AEA","Latitude":-16.493654,"longitude":-68.114258},{"LAYER":"Unknown Point Feature","SITE_ID":"AEC","Latitude":-11.034667,"longitude":-68.770888},{"LAYER":"Unknown Point Feature","SITE_ID":"AEJ","Latitude":-19.061051,"longitude":-65.245543},{"LAYER":"Unknown Point Feature","SITE_ID":"AEO","Latitude":-17.9675,"longitude":-67.081833},{"LAYER":"Unknown Point Feature","SITE_ID":"AEP2","Latitude":-19.1466,"longitude":-65.1992},{"LAYER":"Unknown Point Feature","SITE_ID":"AERO","Latitude":-17.401916,"longitude":-66.177855},{"LAYER":"Unknown Point Feature","SITE_ID":"AES","Latitude":-17.977601,"longitude":-67.135941},{"LAYER":"Unknown Point Feature","SITE_ID":"AEV","Latitude":-17.389306,"longitude":-66.070111},{"LAYER":"Unknown Point Feature","SITE_ID":"AFA","Latitude":-17.39275,"longitude":-66.2937},{"LAYER":"Unknown Point Feature","SITE_ID":"AFG","Latitude":-17.82561,"longitude":-63.20983},{"LAYER":"Unknown Point Feature","SITE_ID":"AFGR","Latitude":-17.145627,"longitude":-63.771755},{"LAYER":"Unknown Point Feature","SITE_ID":"AFR","Latitude":-17.389899,"longitude":-66.090779},{"LAYER":"Unknown Point Feature","SITE_ID":"AGC","Latitude":-18.450375,"longitude":-59.504434},{"LAYER":"Unknown Point Feature","SITE_ID":"AGH","Latitude":-16.8963,"longitude":-63.3115},{"LAYER":"Unknown Point Feature","SITE_ID":"AGO","Latitude":-17.733579,"longitude":-63.14229},{"LAYER":"Unknown Point Feature","SITE_ID":"AGT","Latitude":-18.124487,"longitude":-63.471099},{"LAYER":"Unknown Point Feature","SITE_ID":"AGU","Latitude":-15.8983,"longitude":-63.1864},{"LAYER":"Unknown Point Feature","SITE_ID":"AHS","Latitude":-19.04366,"longitude":-65.26015},{"LAYER":"Unknown Point Feature","SITE_ID":"AIC","Latitude":-16.884505,"longitude":-63.831127},{"LAYER":"Unknown Point Feature","SITE_ID":"AIQ","Latitude":-18.207,"longitude":-65.1805},{"LAYER":"Unknown Point Feature","SITE_ID":"AIRP_","Latitude":-16.524567,"longitude":-68.0774},{"LAYER":"Unknown Point Feature","SITE_ID":"AIT","Latitude":-17.9404,"longitude":-67.115},{"LAYER":"Unknown Point Feature","SITE_ID":"AJ2","Latitude":-16.501008,"longitude":-68.1714},{"LAYER":"Unknown Point Feature","SITE_ID":"AJN","Latitude":-14.828345,"longitude":-64.897838},{"LAYER":"Unknown Point Feature","SITE_ID":"ALA","Latitude":-16.476,"longitude":-68.11867},{"LAYER":"Unknown Point Feature","SITE_ID":"ALB","Latitude":-17.775871,"longitude":-63.135048},{"LAYER":"Unknown Point Feature","SITE_ID":"ALBR","Latitude":-17.44218,"longitude":-66.22317},{"LAYER":"Unknown Point Feature","SITE_ID":"ALC","Latitude":-16.50588,"longitude":-68.14794},{"LAYER":"Unknown Point Feature","SITE_ID":"ALE","Latitude":-17.76877,"longitude":-63.17104},{"LAYER":"Unknown Point Feature","SITE_ID":"ALI","Latitude":-15.522033,"longitude":-67.220017},{"LAYER":"Unknown Point Feature","SITE_ID":"ALL","Latitude":-16.448322,"longitude":-68.145264},{"LAYER":"Unknown Point Feature","SITE_ID":"ALM","Latitude":-14.868829,"longitude":-64.959875},{"LAYER":"Unknown Point Feature","SITE_ID":"ALN","Latitude":-17.422056,"longitude":-66.149139},{"LAYER":"Unknown Point Feature","SITE_ID":"ALP","Latitude":-19.55886,"longitude":-65.76545},{"LAYER":"Unknown Point Feature","SITE_ID":"ALPO","Latitude":-19.582086,"longitude":-65.735168},{"LAYER":"Unknown Point Feature","SITE_ID":"ALR","Latitude":-16.542296,"longitude":-68.199207},{"LAYER":"Unknown Point Feature","SITE_ID":"ALS","Latitude":-17.354963,"longitude":-66.198505},{"LAYER":"Unknown Point Feature","SITE_ID":"ALT","Latitude":-16.482684,"longitude":-68.178654},{"LAYER":"Unknown Point Feature","SITE_ID":"ALT2","Latitude":-16.474505,"longitude":-68.183419},{"LAYER":"Unknown Point Feature","SITE_ID":"ALTB","Latitude":-15.57528,"longitude":-67.402347},{"LAYER":"Unknown Point Feature","SITE_ID":"ALTP","Latitude":-16.486234,"longitude":-68.113331},{"LAYER":"Unknown Point Feature","SITE_ID":"ALY","Latitude":-17.709741,"longitude":-65.691783},{"LAYER":"Unknown Point Feature","SITE_ID":"ALZ","Latitude":-19.039046,"longitude":-65.253759},{"LAYER":"Unknown Point Feature","SITE_ID":"AMC","Latitude":-16.464339,"longitude":-68.183616},{"LAYER":"Unknown Point Feature","SITE_ID":"AMCY","Latitude":-17.377367,"longitude":-66.087394},{"LAYER":"Unknown Point Feature","SITE_ID":"AMD","Latitude":-16.466946,"longitude":-68.119983},{"LAYER":"Unknown Point Feature","SITE_ID":"AME","Latitude":-17.372167,"longitude":-66.166417},{"LAYER":"Unknown Point Feature","SITE_ID":"AMI","Latitude":-16.48135123,"longitude":-68.1271806},{"LAYER":"Unknown Point Feature","SITE_ID":"AML","Latitude":-21.533022,"longitude":-64.765411},{"LAYER":"Unknown Point Feature","SITE_ID":"AMU","Latitude":-17.819307,"longitude":-63.199433},{"LAYER":"Unknown Point Feature","SITE_ID":"AMV","Latitude":-17.788869,"longitude":-63.225488},{"LAYER":"Unknown Point Feature","SITE_ID":"ANB","Latitude":-15.02287,"longitude":-64.66618},{"LAYER":"Unknown Point Feature","SITE_ID":"ANC","Latitude":-15.899361,"longitude":-68.906278},{"LAYER":"Unknown Point Feature","SITE_ID":"AND","Latitude":-17.807089,"longitude":-63.115442},{"LAYER":"Unknown Point Feature","SITE_ID":"ANF","Latitude":-17.40772,"longitude":-66.03424},{"LAYER":"Unknown Point Feature","SITE_ID":"ANG","Latitude":-17.52994,"longitude":-66.08011},{"LAYER":"Unknown Point Feature","SITE_ID":"ANI","Latitude":-17.739965,"longitude":-63.170851},{"LAYER":"Unknown Point Feature","SITE_ID":"ANLP","Latitude":-16.491667,"longitude":-68.189778},{"LAYER":"Unknown Point Feature","SITE_ID":"ANT","Latitude":-17.405089,"longitude":-66.011786},{"LAYER":"Unknown Point Feature","SITE_ID":"ANU","Latitude":-16.484809,"longitude":-68.167734},{"LAYER":"Unknown Point Feature","SITE_ID":"ANZ","Latitude":-17.7786,"longitude":-65.935699},{"LAYER":"Unknown Point Feature","SITE_ID":"AOB","Latitude":-16.51897,"longitude":-68.10247},{"LAYER":"Unknown Point Feature","SITE_ID":"AOP","Latitude":-14.84653,"longitude":-64.902444},{"LAYER":"Unknown Point Feature","SITE_ID":"APA","Latitude":-16.489964,"longitude":-68.10652},{"LAYER":"Unknown Point Feature","SITE_ID":"APE","Latitude":-17.37792,"longitude":-66.072749},{"LAYER":"Unknown Point Feature","SITE_ID":"APM","Latitude":-14.838889,"longitude":-64.908611},{"LAYER":"Unknown Point Feature","SITE_ID":"APO","Latitude":-14.721278,"longitude":-68.421914},{"LAYER":"Unknown Point Feature","SITE_ID":"APP","Latitude":-16.45874,"longitude":-68.16029},{"LAYER":"Unknown Point Feature","SITE_ID":"APR","Latitude":-17.393493,"longitude":-66.170014},{"LAYER":"Unknown Point Feature","SITE_ID":"APT","Latitude":-17.333298,"longitude":-66.235811},{"LAYER":"Unknown Point Feature","SITE_ID":"APY","Latitude":-16.90159,"longitude":-64.98512},{"LAYER":"Unknown Point Feature","SITE_ID":"APZT","Latitude":-16.451196,"longitude":-68.15311},{"LAYER":"Unknown Point Feature","SITE_ID":"AQ2","Latitude":-18.191644,"longitude":-65.178108},{"LAYER":"Unknown Point Feature","SITE_ID":"AQU","Latitude":-17.372222,"longitude":-66.276639},{"LAYER":"Unknown Point Feature","SITE_ID":"AR2","Latitude":-17.827,"longitude":-63.08576},{"LAYER":"Unknown Point Feature","SITE_ID":"ARA","Latitude":-16.5593666,"longitude":-68.08498759},{"LAYER":"Unknown Point Feature","SITE_ID":"ARB","Latitude":-17.5801,"longitude":-66.014099},{"LAYER":"Unknown Point Feature","SITE_ID":"ARE","Latitude":-17.77817,"longitude":-63.18421},{"LAYER":"Unknown Point Feature","SITE_ID":"ARIL","Latitude":-16.495731,"longitude":-68.140181},{"LAYER":"Unknown Point Feature","SITE_ID":"ARL","Latitude":-17.780339,"longitude":-63.179006},{"LAYER":"Unknown Point Feature","SITE_ID":"ARM","Latitude":-17.3991389,"longitude":-66.1555},{"LAYER":"Unknown Point Feature","SITE_ID":"ARN","Latitude":-17.569833,"longitude":-65.772333},{"LAYER":"Unknown Point Feature","SITE_ID":"ARP","Latitude":-17.878851,"longitude":-66.080971},{"LAYER":"Unknown Point Feature","SITE_ID":"ARQ","Latitude":-17.812023,"longitude":-66.387478},{"LAYER":"Unknown Point Feature","SITE_ID":"ARU","Latitude":-16.497944,"longitude":-68.142528},{"LAYER":"Unknown Point Feature","SITE_ID":"ARY","Latitude":-17.823739,"longitude":-63.097792},{"LAYER":"Unknown Point Feature","SITE_ID":"ASC","Latitude":-17.4199,"longitude":-66.1411389},{"LAYER":"Unknown Point Feature","SITE_ID":"ASD","Latitude":-17.43669,"longitude":-66.12258},{"LAYER":"Unknown Point Feature","SITE_ID":"ASE","Latitude":-16.5396,"longitude":-68.098456},{"LAYER":"Unknown Point Feature","SITE_ID":"ASG","Latitude":-15.8843,"longitude":-63.1906},{"LAYER":"Unknown Point Feature","SITE_ID":"ASG3","Latitude":-15.877678,"longitude":-63.178105},{"LAYER":"Unknown Point Feature","SITE_ID":"ASG4","Latitude":-15.90436,"longitude":-63.17807},{"LAYER":"Unknown Point Feature","SITE_ID":"ASN","Latitude":-17.41345,"longitude":-66.177199},{"LAYER":"Unknown Point Feature","SITE_ID":"ASP","Latitude":-17.809205,"longitude":-63.189284},{"LAYER":"Unknown Point Feature","SITE_ID":"ASU","Latitude":-16.128306,"longitude":-67.191361},{"LAYER":"Unknown Point Feature","SITE_ID":"ATC","Latitude":-20.94601,"longitude":-66.22128},{"LAYER":"Unknown Point Feature","SITE_ID":"ATH","Latitude":-16.53071,"longitude":-68.18874},{"LAYER":"Unknown Point Feature","SITE_ID":"ATO","Latitude":-16.546871,"longitude":-68.051568},{"LAYER":"Unknown Point Feature","SITE_ID":"ATQ","Latitude":-18.47112,"longitude":-66.82584},{"LAYER":"Unknown Point Feature","SITE_ID":"AUC","Latitude":-15.479418,"longitude":-68.718922},{"LAYER":"Unknown Point Feature","SITE_ID":"AUL","Latitude":-19.19694,"longitude":-67.06385},{"LAYER":"Unknown Point Feature","SITE_ID":"AULP","Latitude":-15.491826,"longitude":-68.713179},{"LAYER":"Unknown Point Feature","SITE_ID":"AUT","Latitude":-16.48405,"longitude":-68.15817},{"LAYER":"Unknown Point Feature","SITE_ID":"AVA","Latitude":-17.411631,"longitude":-66.164131},{"LAYER":"Unknown Point Feature","SITE_ID":"AVC","Latitude":-17.426202,"longitude":-66.162835},{"LAYER":"Unknown Point Feature","SITE_ID":"AVD","Latitude":-14.83368,"longitude":-64.90763},{"LAYER":"Unknown Point Feature","SITE_ID":"AVG","Latitude":-17.988777,"longitude":-67.111028},{"LAYER":"Unknown Point Feature","SITE_ID":"AVLC","Latitude":-17.366288,"longitude":-66.170335},{"LAYER":"Unknown Point Feature","SITE_ID":"AVU","Latitude":-17.77691,"longitude":-63.17377},{"LAYER":"Unknown Point Feature","SITE_ID":"AVV","Latitude":-16.477726,"longitude":-68.168394},{"LAYER":"Unknown Point Feature","SITE_ID":"AYA","Latitude":-17.7843,"longitude":-63.1848},{"LAYER":"Unknown Point Feature","SITE_ID":"AYO","Latitude":-17.095497,"longitude":-68.0041},{"LAYER":"Unknown Point Feature","SITE_ID":"AYT","Latitude":-15.459249,"longitude":-68.834701},{"LAYER":"Unknown Point Feature","SITE_ID":"AYY","Latitude":-16.497637,"longitude":-68.226593},{"LAYER":"Unknown Point Feature","SITE_ID":"B13","Latitude":-17.8358,"longitude":-63.11541},{"LAYER":"Unknown Point Feature","SITE_ID":"B15","Latitude":-17.755152,"longitude":-63.119454},{"LAYER":"Unknown Point Feature","SITE_ID":"B24","Latitude":-17.85634,"longitude":-63.16353},{"LAYER":"Unknown Point Feature","SITE_ID":"B26","Latitude":-17.72675,"longitude":-63.105611},{"LAYER":"Unknown Point Feature","SITE_ID":"B2K","Latitude":-17.838377,"longitude":-63.217094},{"LAYER":"Unknown Point Feature","SITE_ID":"B30","Latitude":-17.725919,"longitude":-63.137647},{"LAYER":"Unknown Point Feature","SITE_ID":"BAB","Latitude":-17.76425,"longitude":-63.116222},{"LAYER":"Unknown Point Feature","SITE_ID":"BAE","Latitude":-17.729049,"longitude":-63.148107},{"LAYER":"Unknown Point Feature","SITE_ID":"BAG","Latitude":-21.814277,"longitude":-63.446905},{"LAYER":"Unknown Point Feature","SITE_ID":"BAI","Latitude":-16.516083,"longitude":-68.14291},{"LAYER":"Unknown Point Feature","SITE_ID":"BAJ","Latitude":-17.842505,"longitude":-63.242111},{"LAYER":"Unknown Point Feature","SITE_ID":"BAK","Latitude":-17.364456,"longitude":-66.24666},{"LAYER":"Unknown Point Feature","SITE_ID":"BAL5","Latitude":-17.90348,"longitude":-63.26219},{"LAYER":"Unknown Point Feature","SITE_ID":"BAM","Latitude":-17.864521,"longitude":-63.202301},{"LAYER":"Unknown Point Feature","SITE_ID":"BAN","Latitude":-19.037342,"longitude":-65.248644},{"LAYER":"Unknown Point Feature","SITE_ID":"BAR","Latitude":-17.798436,"longitude":-63.174689},{"LAYER":"Unknown Point Feature","SITE_ID":"BAS","Latitude":-18.127449,"longitude":-63.193349},{"LAYER":"Unknown Point Feature","SITE_ID":"BAT","Latitude":-16.30245144,"longitude":-68.52707993},{"LAYER":"Unknown Point Feature","SITE_ID":"BAU","Latitude":-13.65358,"longitude":-63.69201},{"LAYER":"Unknown Point Feature","SITE_ID":"BAV","Latitude":-21.52076,"longitude":-64.73287},{"LAYER":"Unknown Point Feature","SITE_ID":"BAZ","Latitude":-17.3759,"longitude":-66.1478},{"LAYER":"Unknown Point Feature","SITE_ID":"BBC","Latitude":-21.514365,"longitude":-64.737835},{"LAYER":"Unknown Point Feature","SITE_ID":"BBO","Latitude":-21.25784,"longitude":-63.483343},{"LAYER":"Unknown Point Feature","SITE_ID":"BCC","Latitude":-17.748141,"longitude":-63.119703},{"LAYER":"Unknown Point Feature","SITE_ID":"BCD","Latitude":-17.832192,"longitude":-63.131226},{"LAYER":"Unknown Point Feature","SITE_ID":"BCM","Latitude":-17.855244,"longitude":-63.20677},{"LAYER":"Unknown Point Feature","SITE_ID":"BCN","Latitude":-17.84899,"longitude":-63.1999},{"LAYER":"Unknown Point Feature","SITE_ID":"BCO","Latitude":-14.81831,"longitude":-64.88113},{"LAYER":"Unknown Point Feature","SITE_ID":"BCRE","Latitude":-17.741884,"longitude":-63.147145},{"LAYER":"Unknown Point Feature","SITE_ID":"BCS","Latitude":-17.832417,"longitude":-63.2045},{"LAYER":"Unknown Point Feature","SITE_ID":"BCT","Latitude":-17.862843,"longitude":-63.174676},{"LAYER":"Unknown Point Feature","SITE_ID":"BCV","Latitude":-17.798505,"longitude":-63.152371},{"LAYER":"Unknown Point Feature","SITE_ID":"BCW","Latitude":-21.511855,"longitude":-64.749554},{"LAYER":"Unknown Point Feature","SITE_ID":"BDA","Latitude":-18.817236,"longitude":-67.64146},{"LAYER":"Unknown Point Feature","SITE_ID":"BDU","Latitude":-19.38371,"longitude":-66.06183},{"LAYER":"Unknown Point Feature","SITE_ID":"BED","Latitude":-17.78229,"longitude":-63.15014},{"LAYER":"Unknown Point Feature","SITE_ID":"BEL","Latitude":-17.570681,"longitude":-63.229029},{"LAYER":"Unknown Point Feature","SITE_ID":"BEP","Latitude":-17.859619,"longitude":-63.144598},{"LAYER":"Unknown Point Feature","SITE_ID":"BER","Latitude":-17.84167,"longitude":-63.22786},{"LAYER":"Unknown Point Feature","SITE_ID":"BER2","Latitude":-22.725252,"longitude":-64.34711},{"LAYER":"Unknown Point Feature","SITE_ID":"BER4","Latitude":-22.727131,"longitude":-64.331799},{"LAYER":"Unknown Point Feature","SITE_ID":"BES","Latitude":-17.842693,"longitude":-63.193448},{"LAYER":"Unknown Point Feature","SITE_ID":"BET","Latitude":-19.549702,"longitude":-65.44924},{"LAYER":"Unknown Point Feature","SITE_ID":"BEV","Latitude":-16.52776141,"longitude":-68.09517691},{"LAYER":"Unknown Point Feature","SITE_ID":"BFE","Latitude":-17.616019,"longitude":-63.145756},{"LAYER":"Unknown Point Feature","SITE_ID":"BFL","Latitude":-11.714795,"longitude":-66.935375},{"LAYER":"Unknown Point Feature","SITE_ID":"BFR","Latitude":-21.540516,"longitude":-64.706043},{"LAYER":"Unknown Point Feature","SITE_ID":"BFU","Latitude":-17.849657,"longitude":-63.14379},{"LAYER":"Unknown Point Feature","SITE_ID":"BGD","Latitude":-17.729492,"longitude":-63.125474},{"LAYER":"Unknown Point Feature","SITE_ID":"BGF","Latitude":-16.479201,"longitude":-68.118388},{"LAYER":"Unknown Point Feature","SITE_ID":"BGR","Latitude":-21.537339,"longitude":-64.723467},{"LAYER":"Unknown Point Feature","SITE_ID":"BHC","Latitude":-17.802039,"longitude":-63.142615},{"LAYER":"Unknown Point Feature","SITE_ID":"BIB","Latitude":-17.718413,"longitude":-63.118943},{"LAYER":"Unknown Point Feature","SITE_ID":"BIM","Latitude":-17.788019,"longitude":-63.1572},{"LAYER":"Unknown Point Feature","SITE_ID":"BJO","Latitude":-22.733766,"longitude":-64.337977},{"LAYER":"Unknown Point Feature","SITE_ID":"BJP","Latitude":-19.052471,"longitude":-65.235252},{"LAYER":"Unknown Point Feature","SITE_ID":"BL2","Latitude":-17.791889,"longitude":-63.153883},{"LAYER":"Unknown Point Feature","SITE_ID":"BLA","Latitude":-17.79468,"longitude":-63.18135},{"LAYER":"Unknown Point Feature","SITE_ID":"BLE","Latitude":-21.526057,"longitude":-64.710399},{"LAYER":"Unknown Point Feature","SITE_ID":"BLF","Latitude":-17.824901,"longitude":-63.262884},{"LAYER":"Unknown Point Feature","SITE_ID":"BLG","Latitude":-16.52113,"longitude":-68.09137},{"LAYER":"Unknown Point Feature","SITE_ID":"BLL","Latitude":-16.5334,"longitude":-68.1319},{"LAYER":"Unknown Point Feature","SITE_ID":"BLM","Latitude":-17.820929,"longitude":-63.177139},{"LAYER":"Unknown Point Feature","SITE_ID":"BLN","Latitude":-17.790425,"longitude":-63.150138},{"LAYER":"Unknown Point Feature","SITE_ID":"BLT","Latitude":-17.95356,"longitude":-67.10243},{"LAYER":"Unknown Point Feature","SITE_ID":"BLV","Latitude":-17.79471,"longitude":-63.16419},{"LAYER":"Unknown Point Feature","SITE_ID":"BMC","Latitude":-17.3843,"longitude":-66.219099},{"LAYER":"Unknown Point Feature","SITE_ID":"BMG","Latitude":-17.722588,"longitude":-63.150979},{"LAYER":"Unknown Point Feature","SITE_ID":"BMM","Latitude":-17.328564,"longitude":-63.230695},{"LAYER":"Unknown Point Feature","SITE_ID":"BMO","Latitude":-17.840726,"longitude":-63.161732},{"LAYER":"Unknown Point Feature","SITE_ID":"BMZ","Latitude":-17.80994,"longitude":-63.14396},{"LAYER":"Unknown Point Feature","SITE_ID":"BNC","Latitude":-16.508467,"longitude":-68.159961},{"LAYER":"Unknown Point Feature","SITE_ID":"BNO","Latitude":-17.86146,"longitude":-63.192664},{"LAYER":"Unknown Point Feature","SITE_ID":"BNP","Latitude":-17.748192,"longitude":-63.108576},{"LAYER":"Unknown Point Feature","SITE_ID":"BOBR","Latitude":-19.035444,"longitude":-65.254556},{"LAYER":"Unknown Point Feature","SITE_ID":"BOL","Latitude":-17.78378,"longitude":-63.17731},{"LAYER":"Unknown Point Feature","SITE_ID":"BOLP","Latitude":-10.955097,"longitude":-69.557794},{"LAYER":"Unknown Point Feature","SITE_ID":"BOLR","Latitude":-17.97459,"longitude":-66.54622},{"LAYER":"Unknown Point Feature","SITE_ID":"BOR","Latitude":-17.74936,"longitude":-63.18801},{"LAYER":"Unknown Point Feature","SITE_ID":"BOS","Latitude":-17.80981,"longitude":-63.22199},{"LAYER":"Unknown Point Feature","SITE_ID":"BOSQ","Latitude":-17.328279,"longitude":-66.194066},{"LAYER":"Unknown Point Feature","SITE_ID":"BOT","Latitude":-17.763759,"longitude":-63.068994},{"LAYER":"Unknown Point Feature","SITE_ID":"BOY","Latitude":-20.4347,"longitude":-63.2834},{"LAYER":"Unknown Point Feature","SITE_ID":"BPA","Latitude":-11.047134,"longitude":-68.792217},{"LAYER":"Unknown Point Feature","SITE_ID":"BPC","Latitude":-17.815056,"longitude":-63.189583},{"LAYER":"Unknown Point Feature","SITE_ID":"BPD","Latitude":-17.85715,"longitude":-63.18353},{"LAYER":"Unknown Point Feature","SITE_ID":"BPF","Latitude":-17.843361,"longitude":-63.153161},{"LAYER":"Unknown Point Feature","SITE_ID":"BPG","Latitude":-17.731775,"longitude":-63.135908},{"LAYER":"Unknown Point Feature","SITE_ID":"BPR","Latitude":-17.3692222,"longitude":-66.1915556},{"LAYER":"Unknown Point Feature","SITE_ID":"BPT","Latitude":-17.81722,"longitude":-63.22462},{"LAYER":"Unknown Point Feature","SITE_ID":"BRE","Latitude":-17.287365,"longitude":-63.715118},{"LAYER":"Unknown Point Feature","SITE_ID":"BRE7","Latitude":-18.1528,"longitude":-62.92568},{"LAYER":"Unknown Point Feature","SITE_ID":"BRI","Latitude":-17.75475,"longitude":-63.19414},{"LAYER":"Unknown Point Feature","SITE_ID":"BS2","Latitude":-16.484158,"longitude":-68.286912},{"LAYER":"Unknown Point Feature","SITE_ID":"BSA","Latitude":-16.481189,"longitude":-68.250636},{"LAYER":"Unknown Point Feature","SITE_ID":"BSB","Latitude":-21.558837,"longitude":-64.732622},{"LAYER":"Unknown Point Feature","SITE_ID":"BSF","Latitude":-17.856082,"longitude":-63.153996},{"LAYER":"Unknown Point Feature","SITE_ID":"BSG","Latitude":-17.378583,"longitude":-66.202528},{"LAYER":"Unknown Point Feature","SITE_ID":"BSJ","Latitude":-21.551977,"longitude":-64.693225},{"LAYER":"Unknown Point Feature","SITE_ID":"BSL","Latitude":-21.555519,"longitude":-64.7118},{"LAYER":"Unknown Point Feature","SITE_ID":"BSP","Latitude":-17.8487,"longitude":-63.18316},{"LAYER":"Unknown Point Feature","SITE_ID":"BSR","Latitude":-17.76722,"longitude":-63.20521},{"LAYER":"Unknown Point Feature","SITE_ID":"BST","Latitude":-19.052225,"longitude":-65.263999},{"LAYER":"Unknown Point Feature","SITE_ID":"BSZ","Latitude":-17.847831,"longitude":-63.117533},{"LAYER":"Unknown Point Feature","SITE_ID":"BTA","Latitude":-17.465194,"longitude":-66.151518},{"LAYER":"Unknown Point Feature","SITE_ID":"BTC","Latitude":-17.832901,"longitude":-63.233837},{"LAYER":"Unknown Point Feature","SITE_ID":"BTH","Latitude":-17.828953,"longitude":-63.221608},{"LAYER":"Unknown Point Feature","SITE_ID":"BTI","Latitude":-17.737964,"longitude":-63.152594},{"LAYER":"Unknown Point Feature","SITE_ID":"BTO","Latitude":-17.3387,"longitude":-63.24607},{"LAYER":"Unknown Point Feature","SITE_ID":"BTR","Latitude":-17.7442,"longitude":-63.188461},{"LAYER":"Unknown Point Feature","SITE_ID":"BU2","Latitude":-17.449722,"longitude":-66.150944},{"LAYER":"Unknown Point Feature","SITE_ID":"BUE","Latitude":-16.49447,"longitude":-68.13286},{"LAYER":"Unknown Point Feature","SITE_ID":"BUL","Latitude":-17.249919,"longitude":-64.366898},{"LAYER":"Unknown Point Feature","SITE_ID":"BUN","Latitude":-17.440809,"longitude":-66.14194},{"LAYER":"Unknown Point Feature","SITE_ID":"BUS","Latitude":-17.78946,"longitude":-63.16349},{"LAYER":"Unknown Point Feature","SITE_ID":"BVG","Latitude":-17.813833,"longitude":-63.229956},{"LAYER":"Unknown Point Feature","SITE_ID":"BVN","Latitude":-16.48895,"longitude":-68.18224},{"LAYER":"Unknown Point Feature","SITE_ID":"BVR","Latitude":-21.9234,"longitude":-63.651},{"LAYER":"Unknown Point Feature","SITE_ID":"BVT","Latitude":-17.463472,"longitude":-63.6675},{"LAYER":"Unknown Point Feature","SITE_ID":"BVZ","Latitude":-17.777328,"longitude":-63.12699},{"LAYER":"Unknown Point Feature","SITE_ID":"C26","Latitude":-17.458198,"longitude":-62.62309},{"LAYER":"Unknown Point Feature","SITE_ID":"C27","Latitude":-16.481169,"longitude":-68.115145},{"LAYER":"Unknown Point Feature","SITE_ID":"C6A","Latitude":-16.509814,"longitude":-68.124029},{"LAYER":"Unknown Point Feature","SITE_ID":"C79","Latitude":-16.531315,"longitude":-68.219733},{"LAYER":"Unknown Point Feature","SITE_ID":"CAA","Latitude":-17.8262,"longitude":-63.12228},{"LAYER":"Unknown Point Feature","SITE_ID":"CAB","Latitude":-18.789139,"longitude":-63.313444},{"LAYER":"Unknown Point Feature","SITE_ID":"CAC","Latitude":-17.978309,"longitude":-67.104515},{"LAYER":"Unknown Point Feature","SITE_ID":"CACH","Latitude":-17.411889,"longitude":-66.156139},{"LAYER":"Unknown Point Feature","SITE_ID":"CAI","Latitude":-17.78849,"longitude":-63.17874},{"LAYER":"Unknown Point Feature","SITE_ID":"CAIG","Latitude":-21.164949,"longitude":-63.420596},{"LAYER":"Unknown Point Feature","SITE_ID":"CAIR","Latitude":-16.908639,"longitude":-67.557934},{"LAYER":"Unknown Point Feature","SITE_ID":"CAL","Latitude":-16.90242,"longitude":-68.12631},{"LAYER":"Unknown Point Feature","SITE_ID":"CALI","Latitude":-17.319882,"longitude":-66.282557},{"LAYER":"Unknown Point Feature","SITE_ID":"CAM","Latitude":-16.4991,"longitude":-68.134658},{"LAYER":"Unknown Point Feature","SITE_ID":"CAN","Latitude":-17.25915,"longitude":-62.556083},{"LAYER":"Unknown Point Feature","SITE_ID":"CAN2","Latitude":-17.27626,"longitude":-62.55922},{"LAYER":"Unknown Point Feature","SITE_ID":"CAO","Latitude":-21.972555,"longitude":-63.627398},{"LAYER":"Unknown Point Feature","SITE_ID":"CAQ","Latitude":-17.02327,"longitude":-68.607},{"LAYER":"Unknown Point Feature","SITE_ID":"CAR","Latitude":-17.640908,"longitude":-67.223542},{"LAYER":"Unknown Point Feature","SITE_ID":"CARO","Latitude":-17.204429,"longitude":-63.120867},{"LAYER":"Unknown Point Feature","SITE_ID":"CAS","Latitude":-20.043969,"longitude":-63.519075},{"LAYER":"Unknown Point Feature","SITE_ID":"CAT","Latitude":-17.717783,"longitude":-63.160267},{"LAYER":"Unknown Point Feature","SITE_ID":"CAV","Latitude":-17.859449,"longitude":-63.112297},{"LAYER":"Unknown Point Feature","SITE_ID":"CBC","Latitude":-11.031497,"longitude":-68.761031},{"LAYER":"Unknown Point Feature","SITE_ID":"CBD","Latitude":-19.03933,"longitude":-65.239284},{"LAYER":"Unknown Point Feature","SITE_ID":"CBE","Latitude":-14.824278,"longitude":-64.902831},{"LAYER":"Unknown Point Feature","SITE_ID":"CBN","Latitude":-17.885222,"longitude":-63.286639},{"LAYER":"Unknown Point Feature","SITE_ID":"CBN2","Latitude":-17.876397,"longitude":-63.270638},{"LAYER":"Unknown Point Feature","SITE_ID":"CBT","Latitude":-16.50268,"longitude":-68.14742},{"LAYER":"Unknown Point Feature","SITE_ID":"CBY","Latitude":-15.817504,"longitude":-68.717111},{"LAYER":"Unknown Point Feature","SITE_ID":"CC2","Latitude":-15.847343,"longitude":-67.551689},{"LAYER":"Unknown Point Feature","SITE_ID":"CCB","Latitude":-17.3805833,"longitude":-66.1489139},{"LAYER":"Unknown Point Feature","SITE_ID":"CCB9","Latitude":-17.38728,"longitude":-63.52115},{"LAYER":"Unknown Point Feature","SITE_ID":"CCC","Latitude":-17.402218,"longitude":-66.127486},{"LAYER":"Unknown Point Feature","SITE_ID":"CCH","Latitude":-18.148417,"longitude":-60.02925},{"LAYER":"Unknown Point Feature","SITE_ID":"CCHU","Latitude":-17.61649,"longitude":-63.10684},{"LAYER":"Unknown Point Feature","SITE_ID":"CCJ","Latitude":-17.541276,"longitude":-66.030716},{"LAYER":"Unknown Point Feature","SITE_ID":"CCM","Latitude":-17.966139,"longitude":-67.115861},{"LAYER":"Unknown Point Feature","SITE_ID":"CCN","Latitude":-16.481412,"longitude":-68.124833},{"LAYER":"Unknown Point Feature","SITE_ID":"CCO","Latitude":-17.776834,"longitude":-63.159579},{"LAYER":"Unknown Point Feature","SITE_ID":"CCP","Latitude":-17.611871,"longitude":-63.12633},{"LAYER":"Unknown Point Feature","SITE_ID":"CCPT","Latitude":-16.78096,"longitude":-66.66456},{"LAYER":"Unknown Point Feature","SITE_ID":"CCR","Latitude":-17.44666,"longitude":-63.525861},{"LAYER":"Unknown Point Feature","SITE_ID":"CCS","Latitude":-17.799456,"longitude":-63.21308},{"LAYER":"Unknown Point Feature","SITE_ID":"CCT","Latitude":-17.798211,"longitude":-63.179057},{"LAYER":"Unknown Point Feature","SITE_ID":"CCU","Latitude":-16.508083,"longitude":-68.145083},{"LAYER":"Unknown Point Feature","SITE_ID":"CCUM","Latitude":-16.33633,"longitude":-68.03738},{"LAYER":"Unknown Point Feature","SITE_ID":"CDB","Latitude":-17.33979,"longitude":-66.18074},{"LAYER":"Unknown Point Feature","SITE_ID":"CDC","Latitude":-17.81625,"longitude":-63.150068},{"LAYER":"Unknown Point Feature","SITE_ID":"CDE","Latitude":-17.76005,"longitude":-63.19667},{"LAYER":"Unknown Point Feature","SITE_ID":"CDES","Latitude":-17.802976,"longitude":-63.069625},{"LAYER":"Unknown Point Feature","SITE_ID":"CDG","Latitude":-17.720937,"longitude":-63.167567},{"LAYER":"Unknown Point Feature","SITE_ID":"CDL","Latitude":-16.530178,"longitude":-68.210752},{"LAYER":"Unknown Point Feature","SITE_ID":"CDLP","Latitude":-15.448438,"longitude":-67.949425},{"LAYER":"Unknown Point Feature","SITE_ID":"CDM","Latitude":-19.588641,"longitude":-65.753807},{"LAYER":"Unknown Point Feature","SITE_ID":"CDR","Latitude":-16.051,"longitude":-61.097},{"LAYER":"Unknown Point Feature","SITE_ID":"CDS","Latitude":-17.98437,"longitude":-67.09609},{"LAYER":"Unknown Point Feature","SITE_ID":"CDU","Latitude":-19.818567,"longitude":-63.985517},{"LAYER":"Unknown Point Feature","SITE_ID":"CEA","Latitude":-16.508364,"longitude":-68.164},{"LAYER":"Unknown Point Feature","SITE_ID":"CEAB","Latitude":-17.404582,"longitude":-66.108108},{"LAYER":"Unknown Point Feature","SITE_ID":"CEC","Latitude":-17.771219,"longitude":-63.183419},{"LAYER":"Unknown Point Feature","SITE_ID":"CEJ","Latitude":-16.50584,"longitude":-68.16169},{"LAYER":"Unknown Point Feature","SITE_ID":"CEM","Latitude":-16.4957,"longitude":-68.14882},{"LAYER":"Unknown Point Feature","SITE_ID":"CEN","Latitude":-17.7785,"longitude":-63.205861},{"LAYER":"Unknown Point Feature","SITE_ID":"CES","Latitude":-17.39228,"longitude":-66.15928},{"LAYER":"Unknown Point Feature","SITE_ID":"CFE","Latitude":-17.4285,"longitude":-66.12349},{"LAYER":"Unknown Point Feature","SITE_ID":"CFR","Latitude":-16.496994,"longitude":-68.107547},{"LAYER":"Unknown Point Feature","SITE_ID":"CFV","Latitude":-19.583933,"longitude":-65.759903},{"LAYER":"Unknown Point Feature","SITE_ID":"CGA","Latitude":-21.536462,"longitude":-64.734085},{"LAYER":"Unknown Point Feature","SITE_ID":"CGL","Latitude":-16.51195,"longitude":-68.13397},{"LAYER":"Unknown Point Feature","SITE_ID":"CGM","Latitude":-16.53099843,"longitude":-68.08670074},{"LAYER":"Unknown Point Feature","SITE_ID":"CGO","Latitude":-20.647361,"longitude":-65.214644},{"LAYER":"Unknown Point Feature","SITE_ID":"CGR","Latitude":-16.273525,"longitude":-67.691238},{"LAYER":"Unknown Point Feature","SITE_ID":"CGS","Latitude":-19.050027,"longitude":-65.270553},{"LAYER":"Unknown Point Feature","SITE_ID":"CGY","Latitude":-21.868058,"longitude":-64.770197},{"LAYER":"Unknown Point Feature","SITE_ID":"CHA","Latitude":-17.77861,"longitude":-63.16853},{"LAYER":"Unknown Point Feature","SITE_ID":"CHAQ","Latitude":-19.572428,"longitude":-65.562265},{"LAYER":"Unknown Point Feature","SITE_ID":"CHB","Latitude":-17.397456,"longitude":-66.190706},{"LAYER":"Unknown Point Feature","SITE_ID":"CHCL","Latitude":-21.753192,"longitude":-64.739239},{"LAYER":"Unknown Point Feature","SITE_ID":"CHCT","Latitude":-18.0983746,"longitude":-67.895526},{"LAYER":"Unknown Point Feature","SITE_ID":"CHD","Latitude":-17.401574,"longitude":-66.151646},{"LAYER":"Unknown Point Feature","SITE_ID":"CHG","Latitude":-16.44009,"longitude":-68.08003},{"LAYER":"Unknown Point Feature","SITE_ID":"CHH","Latitude":-17.218,"longitude":-62.15425},{"LAYER":"Unknown Point Feature","SITE_ID":"CHI","Latitude":-17.824596,"longitude":-63.202803},{"LAYER":"Unknown Point Feature","SITE_ID":"CHL","Latitude":-22.735948,"longitude":-64.345484},{"LAYER":"Unknown Point Feature","SITE_ID":"CHLP","Latitude":-17.583826,"longitude":-68.215911},{"LAYER":"Unknown Point Feature","SITE_ID":"CHM","Latitude":-16.99227,"longitude":-65.151349},{"LAYER":"Unknown Point Feature","SITE_ID":"CHN","Latitude":-16.976516,"longitude":-63.224352},{"LAYER":"Unknown Point Feature","SITE_ID":"CHO","Latitude":-16.499811,"longitude":-68.15027},{"LAYER":"Unknown Point Feature","SITE_ID":"CHOR","Latitude":-18.357752,"longitude":-67.116064},{"LAYER":"Unknown Point Feature","SITE_ID":"CHP","Latitude":-17.81352,"longitude":-63.19603},{"LAYER":"Unknown Point Feature","SITE_ID":"CHPY","Latitude":-19.0418704,"longitude":-68.0889086},{"LAYER":"Unknown Point Feature","SITE_ID":"CHQ","Latitude":-15.59687,"longitude":-68.08058},{"LAYER":"Unknown Point Feature","SITE_ID":"CHR","Latitude":-17.77247,"longitude":-63.14866},{"LAYER":"Unknown Point Feature","SITE_ID":"CHRZ","Latitude":-15.177297,"longitude":-68.994644},{"LAYER":"Unknown Point Feature","SITE_ID":"CHS","Latitude":-16.503562,"longitude":-68.246163},{"LAYER":"Unknown Point Feature","SITE_ID":"CHS2","Latitude":-16.49451,"longitude":-68.25944},{"LAYER":"Unknown Point Feature","SITE_ID":"CHT","Latitude":-18.899417,"longitude":-66.775944},{"LAYER":"Unknown Point Feature","SITE_ID":"CHU","Latitude":-16.408931,"longitude":-67.528019},{"LAYER":"Unknown Point Feature","SITE_ID":"CHUC","Latitude":-16.190598,"longitude":-68.74448},{"LAYER":"Unknown Point Feature","SITE_ID":"CHY","Latitude":-16.4959,"longitude":-68.174},{"LAYER":"Unknown Point Feature","SITE_ID":"CIO","Latitude":-22.019011,"longitude":-63.678721},{"LAYER":"Unknown Point Feature","SITE_ID":"CIP","Latitude":-16.521631,"longitude":-68.223503},{"LAYER":"Unknown Point Feature","SITE_ID":"CIQ","Latitude":-17.969438,"longitude":-67.100529},{"LAYER":"Unknown Point Feature","SITE_ID":"CIR","Latitude":-17.368068,"longitude":-66.15124},{"LAYER":"Unknown Point Feature","SITE_ID":"CIS","Latitude":-17.768069,"longitude":-63.190202},{"LAYER":"Unknown Point Feature","SITE_ID":"CIZ","Latitude":-17.891287,"longitude":-63.221348},{"LAYER":"Unknown Point Feature","SITE_ID":"CJH","Latitude":-16.507842,"longitude":-68.162953},{"LAYER":"Unknown Point Feature","SITE_ID":"CJR","Latitude":-19.038511,"longitude":-65.257653},{"LAYER":"Unknown Point Feature","SITE_ID":"CJT","Latitude":-16.664198,"longitude":-67.197835},{"LAYER":"Unknown Point Feature","SITE_ID":"CKO","Latitude":-19.62227,"longitude":-65.2675},{"LAYER":"Unknown Point Feature","SITE_ID":"CL2","Latitude":-17.59324,"longitude":-65.93497},{"LAYER":"Unknown Point Feature","SITE_ID":"CLA","Latitude":-17.833414,"longitude":-63.227028},{"LAYER":"Unknown Point Feature","SITE_ID":"CLB","Latitude":-17.763931,"longitude":-63.168441},{"LAYER":"Unknown Point Feature","SITE_ID":"CLC","Latitude":-17.366667,"longitude":-66.164167},{"LAYER":"Unknown Point Feature","SITE_ID":"CLCH","Latitude":-20.73409,"longitude":-67.65565},{"LAYER":"Unknown Point Feature","SITE_ID":"CLD","Latitude":-17.83326,"longitude":-63.17504},{"LAYER":"Unknown Point Feature","SITE_ID":"CLG","Latitude":-17.641778,"longitude":-62.487528},{"LAYER":"Unknown Point Feature","SITE_ID":"CLHN","Latitude":-20.29380955,"longitude":-66.93151379},{"LAYER":"Unknown Point Feature","SITE_ID":"CLI","Latitude":-17.584,"longitude":-65.932199},{"LAYER":"Unknown Point Feature","SITE_ID":"CLI_","Latitude":-17.58399641,"longitude":-65.93220089},{"LAYER":"Unknown Point Feature","SITE_ID":"CLJ","Latitude":-16.52870635,"longitude":-68.33369891},{"LAYER":"Unknown Point Feature","SITE_ID":"CLJ2","Latitude":-16.512406,"longitude":-68.280374},{"LAYER":"Unknown Point Feature","SITE_ID":"CLL","Latitude":-19.046362,"longitude":-65.262032},{"LAYER":"Unknown Point Feature","SITE_ID":"CLM","Latitude":-17.3468,"longitude":-65.840199},{"LAYER":"Unknown Point Feature","SITE_ID":"CLMU","Latitude":-21.711121,"longitude":-64.601271},{"LAYER":"Unknown Point Feature","SITE_ID":"CLN","Latitude":-16.51310207,"longitude":-68.12061484},{"LAYER":"Unknown Point Feature","SITE_ID":"CLNA","Latitude":-16.903625,"longitude":-68.284142},{"LAYER":"Unknown Point Feature","SITE_ID":"CLO","Latitude":-16.19602843,"longitude":-67.69170695},{"LAYER":"Unknown Point Feature","SITE_ID":"CLP","Latitude":-17.392444,"longitude":-66.228547},{"LAYER":"Unknown Point Feature","SITE_ID":"CLQ","Latitude":-16.93175,"longitude":-68.248061},{"LAYER":"Unknown Point Feature","SITE_ID":"CLR","Latitude":-19.050064,"longitude":-65.25583},{"LAYER":"Unknown Point Feature","SITE_ID":"CLRT","Latitude":-19.057587,"longitude":-65.253829},{"LAYER":"Unknown Point Feature","SITE_ID":"CLT","Latitude":-16.546069,"longitude":-68.0769},{"LAYER":"Unknown Point Feature","SITE_ID":"CLTR","Latitude":-17.28319,"longitude":-68.63637},{"LAYER":"Unknown Point Feature","SITE_ID":"CLV","Latitude":-17.4113694,"longitude":-66.2822806},{"LAYER":"Unknown Point Feature","SITE_ID":"CLZ","Latitude":-16.192605,"longitude":-67.18162},{"LAYER":"Unknown Point Feature","SITE_ID":"CMA","Latitude":-15.480689,"longitude":-68.898981},{"LAYER":"Unknown Point Feature","SITE_ID":"CMB","Latitude":-17.38935,"longitude":-66.04215},{"LAYER":"Unknown Point Feature","SITE_ID":"CMC","Latitude":-16.483376,"longitude":-68.084106},{"LAYER":"Unknown Point Feature","SITE_ID":"CMD","Latitude":-17.512785,"longitude":-65.856138},{"LAYER":"Unknown Point Feature","SITE_ID":"CMER","Latitude":-16.533415,"longitude":-68.252683},{"LAYER":"Unknown Point Feature","SITE_ID":"CMG","Latitude":-17.40424,"longitude":-66.148359},{"LAYER":"Unknown Point Feature","SITE_ID":"CMI","Latitude":-17.929323,"longitude":-67.118615},{"LAYER":"Unknown Point Feature","SITE_ID":"CMK","Latitude":-16.99411133,"longitude":-68.45837951},{"LAYER":"Unknown Point Feature","SITE_ID":"CML","Latitude":-17.809896,"longitude":-63.200848},{"LAYER":"Unknown Point Feature","SITE_ID":"CMO","Latitude":-21.352233,"longitude":-64.756099},{"LAYER":"Unknown Point Feature","SITE_ID":"CMP","Latitude":-17.91436,"longitude":-64.526},{"LAYER":"Unknown Point Feature","SITE_ID":"CMR","Latitude":-20.038333,"longitude":-63.525533},{"LAYER":"Unknown Point Feature","SITE_ID":"CMU","Latitude":-17.972602,"longitude":-67.11227},{"LAYER":"Unknown Point Feature","SITE_ID":"CMV","Latitude":-17.870774,"longitude":-63.063798},{"LAYER":"Unknown Point Feature","SITE_ID":"CMY","Latitude":-16.999416,"longitude":-65.637246},{"LAYER":"Unknown Point Feature","SITE_ID":"CN2","Latitude":-17.692313,"longitude":-63.165813},{"LAYER":"Unknown Point Feature","SITE_ID":"CNB","Latitude":-17.406528,"longitude":-66.295},{"LAYER":"Unknown Point Feature","SITE_ID":"CND","Latitude":-16.404083,"longitude":-63.863278},{"LAYER":"Unknown Point Feature","SITE_ID":"CNF","Latitude":-17.79104,"longitude":-63.17948},{"LAYER":"Unknown Point Feature","SITE_ID":"CNH","Latitude":-17.343768,"longitude":-62.809955},{"LAYER":"Unknown Point Feature","SITE_ID":"CNR","Latitude":-17.74857,"longitude":-63.16336},{"LAYER":"Unknown Point Feature","SITE_ID":"COA","Latitude":-16.52735,"longitude":-68.064289},{"LAYER":"Unknown Point Feature","SITE_ID":"COAN","Latitude":-16.220498,"longitude":-67.748348},{"LAYER":"Unknown Point Feature","SITE_ID":"COB","Latitude":-11.022567,"longitude":-68.759138},{"LAYER":"Unknown Point Feature","SITE_ID":"COC2","Latitude":-17.74982,"longitude":-62.99575},{"LAYER":"Unknown Point Feature","SITE_ID":"COC3","Latitude":-17.7594866,"longitude":-63.0002169},{"LAYER":"Unknown Point Feature","SITE_ID":"COE","Latitude":-17.414269,"longitude":-66.09335},{"LAYER":"Unknown Point Feature","SITE_ID":"COI","Latitude":-19.277662,"longitude":-68.277712},{"LAYER":"Unknown Point Feature","SITE_ID":"COL","Latitude":-19.047306,"longitude":-65.265222},{"LAYER":"Unknown Point Feature","SITE_ID":"COL2","Latitude":-19.049462,"longitude":-65.26275},{"LAYER":"Unknown Point Feature","SITE_ID":"COLQ","Latitude":-17.387683,"longitude":-67.128681},{"LAYER":"Unknown Point Feature","SITE_ID":"COM","Latitude":-16.95676,"longitude":-68.42765},{"LAYER":"Unknown Point Feature","SITE_ID":"COML","Latitude":-17.166222,"longitude":-62.562861},{"LAYER":"Unknown Point Feature","SITE_ID":"CON","Latitude":-16.133902,"longitude":-62.026226},{"LAYER":"Unknown Point Feature","SITE_ID":"CON2","Latitude":-16.130734,"longitude":-62.04031},{"LAYER":"Unknown Point Feature","SITE_ID":"CON3","Latitude":-16.1495,"longitude":-62.019005},{"LAYER":"Unknown Point Feature","SITE_ID":"COO","Latitude":-17.181278,"longitude":-68.44925},{"LAYER":"Unknown Point Feature","SITE_ID":"COP","Latitude":-16.177749,"longitude":-69.085926},{"LAYER":"Unknown Point Feature","SITE_ID":"COR","Latitude":-17.7751,"longitude":-63.1807},{"LAYER":"Unknown Point Feature","SITE_ID":"CORC","Latitude":-16.19401622,"longitude":-67.72140468},{"LAYER":"Unknown Point Feature","SITE_ID":"COS","Latitude":-17.824505,"longitude":-63.228892},{"LAYER":"Unknown Point Feature","SITE_ID":"COT","Latitude":-17.75351,"longitude":-62.98247},{"LAYER":"Unknown Point Feature","SITE_ID":"COT2_","Latitude":-16.54111,"longitude":-68.06602},{"LAYER":"Unknown Point Feature","SITE_ID":"COV","Latitude":-16.494001,"longitude":-68.104201},{"LAYER":"Unknown Point Feature","SITE_ID":"CPA","Latitude":-17.820019,"longitude":-63.143553},{"LAYER":"Unknown Point Feature","SITE_ID":"CPAJ","Latitude":-21.896393,"longitude":-63.621374},{"LAYER":"Unknown Point Feature","SITE_ID":"CPAL","Latitude":-17.378561,"longitude":-63.989269},{"LAYER":"Unknown Point Feature","SITE_ID":"CPC","Latitude":-16.552311,"longitude":-68.194871},{"LAYER":"Unknown Point Feature","SITE_ID":"CPD","Latitude":-16.503013,"longitude":-68.135503},{"LAYER":"Unknown Point Feature","SITE_ID":"CPDR","Latitude":-16.54461,"longitude":-68.19128},{"LAYER":"Unknown Point Feature","SITE_ID":"CPI","Latitude":-16.527949,"longitude":-63.714485},{"LAYER":"Unknown Point Feature","SITE_ID":"CPJ","Latitude":-17.971139,"longitude":-67.141162},{"LAYER":"Unknown Point Feature","SITE_ID":"CPN","Latitude":-17.7160556,"longitude":-66.2638056},{"LAYER":"Unknown Point Feature","SITE_ID":"CPO","Latitude":-17.351521,"longitude":-63.255015},{"LAYER":"Unknown Point Feature","SITE_ID":"CPR","Latitude":-17.794289,"longitude":-63.139215},{"LAYER":"Unknown Point Feature","SITE_ID":"CPT","Latitude":-19.582196,"longitude":-65.754213},{"LAYER":"Unknown Point Feature","SITE_ID":"CPUN","Latitude":-17.53772,"longitude":-65.83218},{"LAYER":"Unknown Point Feature","SITE_ID":"CPV","Latitude":-19.601881,"longitude":-65.742056},{"LAYER":"Unknown Point Feature","SITE_ID":"CPY","Latitude":-17.773726,"longitude":-63.183899},{"LAYER":"Unknown Point Feature","SITE_ID":"CPZ","Latitude":-16.487222,"longitude":-68.135306},{"LAYER":"Unknown Point Feature","SITE_ID":"CQCH","Latitude":-18.69592,"longitude":-65.99175},{"LAYER":"Unknown Point Feature","SITE_ID":"CQE","Latitude":-18.354028,"longitude":-67.690333},{"LAYER":"Unknown Point Feature","SITE_ID":"CQH","Latitude":-18.591984,"longitude":-66.367986},{"LAYER":"Unknown Point Feature","SITE_ID":"CRA","Latitude":-17.37304,"longitude":-66.12403},{"LAYER":"Unknown Point Feature","SITE_ID":"CRC","Latitude":-19.56793,"longitude":-65.762164},{"LAYER":"Unknown Point Feature","SITE_ID":"CRD","Latitude":-17.521325,"longitude":-63.53618},{"LAYER":"Unknown Point Feature","SITE_ID":"CRDN","Latitude":-16.473248,"longitude":-68.273521},{"LAYER":"Unknown Point Feature","SITE_ID":"CRE","Latitude":-17.774051,"longitude":-63.199417},{"LAYER":"Unknown Point Feature","SITE_ID":"CRF","Latitude":-16.507426,"longitude":-68.125282},{"LAYER":"Unknown Point Feature","SITE_ID":"CRG","Latitude":-17.789453,"longitude":-63.205619},{"LAYER":"Unknown Point Feature","SITE_ID":"CRGS","Latitude":-18.939205,"longitude":-68.624299},{"LAYER":"Unknown Point Feature","SITE_ID":"CRH","Latitude":-19.78175,"longitude":-63.183528},{"LAYER":"Unknown Point Feature","SITE_ID":"CRI","Latitude":-21.833679,"longitude":-63.736589},{"LAYER":"Unknown Point Feature","SITE_ID":"CRM","Latitude":-14.835453,"longitude":-64.896643},{"LAYER":"Unknown Point Feature","SITE_ID":"CRN","Latitude":-17.5927,"longitude":-69.4447},{"LAYER":"Unknown Point Feature","SITE_ID":"CRP","Latitude":-16.30651679,"longitude":-67.59717162},{"LAYER":"Unknown Point Feature","SITE_ID":"CRPL","Latitude":-16.503115,"longitude":-68.166162},{"LAYER":"Unknown Point Feature","SITE_ID":"CRPY","Latitude":-18.232424,"longitude":-66.471705},{"LAYER":"Unknown Point Feature","SITE_ID":"CRQ","Latitude":-16.537833,"longitude":-68.209972},{"LAYER":"Unknown Point Feature","SITE_ID":"CRR","Latitude":-17.95013,"longitude":-67.116444},{"LAYER":"Unknown Point Feature","SITE_ID":"CRS","Latitude":-16.489082,"longitude":-68.209477},{"LAYER":"Unknown Point Feature","SITE_ID":"CRT","Latitude":-18.821477,"longitude":-58.623867},{"LAYER":"Unknown Point Feature","SITE_ID":"CRTF","Latitude":-16.498925,"longitude":-68.166081},{"LAYER":"Unknown Point Feature","SITE_ID":"CRU","Latitude":-17.618732,"longitude":-62.226049},{"LAYER":"Unknown Point Feature","SITE_ID":"CRV","Latitude":-15.835891,"longitude":-67.565102},{"LAYER":"Unknown Point Feature","SITE_ID":"CRVL","Latitude":-15.125997,"longitude":-68.998965},{"LAYER":"Unknown Point Feature","SITE_ID":"CSA","Latitude":-21.5625406,"longitude":-64.8007689},{"LAYER":"Unknown Point Feature","SITE_ID":"CSB","Latitude":-16.286366,"longitude":-67.833334},{"LAYER":"Unknown Point Feature","SITE_ID":"CSC","Latitude":-19.047041,"longitude":-65.258776},{"LAYER":"Unknown Point Feature","SITE_ID":"CSE","Latitude":-17.779909,"longitude":-63.182453},{"LAYER":"Unknown Point Feature","SITE_ID":"CSF","Latitude":-17.76976,"longitude":-63.16549},{"LAYER":"Unknown Point Feature","SITE_ID":"CSJ","Latitude":-21.523561,"longitude":-64.716354},{"LAYER":"Unknown Point Feature","SITE_ID":"CSO","Latitude":-15.89374,"longitude":-68.64853},{"LAYER":"Unknown Point Feature","SITE_ID":"CSP","Latitude":-16.537928,"longitude":-68.045976},{"LAYER":"Unknown Point Feature","SITE_ID":"CSQ","Latitude":-17.402258,"longitude":-66.285129},{"LAYER":"Unknown Point Feature","SITE_ID":"CSR","Latitude":-14.87041,"longitude":-64.48147},{"LAYER":"Unknown Point Feature","SITE_ID":"CSS","Latitude":-16.50543,"longitude":-68.11877},{"LAYER":"Unknown Point Feature","SITE_ID":"CST","Latitude":-16.52672,"longitude":-68.14588},{"LAYER":"Unknown Point Feature","SITE_ID":"CSU","Latitude":-21.520982,"longitude":-64.726318},{"LAYER":"Unknown Point Feature","SITE_ID":"CTA","Latitude":-16.53986,"longitude":-68.055},{"LAYER":"Unknown Point Feature","SITE_ID":"CTB","Latitude":-17.973595,"longitude":-67.069363},{"LAYER":"Unknown Point Feature","SITE_ID":"CTC","Latitude":-17.41059,"longitude":-65.98579},{"LAYER":"Unknown Point Feature","SITE_ID":"CTCR","Latitude":-17.16327,"longitude":-69.48746},{"LAYER":"Unknown Point Feature","SITE_ID":"CTD","Latitude":-17.876416,"longitude":-63.020382},{"LAYER":"Unknown Point Feature","SITE_ID":"CTG","Latitude":-20.812932,"longitude":-65.660911},{"LAYER":"Unknown Point Feature","SITE_ID":"CTH","Latitude":-16.51845,"longitude":-68.13787},{"LAYER":"Unknown Point Feature","SITE_ID":"CTL","Latitude":-17.689987,"longitude":-63.155173},{"LAYER":"Unknown Point Feature","SITE_ID":"CTN","Latitude":-17.775986,"longitude":-63.209417},{"LAYER":"Unknown Point Feature","SITE_ID":"CTP","Latitude":-16.548531,"longitude":-68.013457},{"LAYER":"Unknown Point Feature","SITE_ID":"CTR","Latitude":-14.843882,"longitude":-64.911261},{"LAYER":"Unknown Point Feature","SITE_ID":"CUA","Latitude":-17.396583,"longitude":-66.141639},{"LAYER":"Unknown Point Feature","SITE_ID":"CUB","Latitude":-17.735401,"longitude":-63.219133},{"LAYER":"Unknown Point Feature","SITE_ID":"CUC","Latitude":-17.6524,"longitude":-65.794},{"LAYER":"Unknown Point Feature","SITE_ID":"CUD","Latitude":-16.4730758,"longitude":-68.12900581},{"LAYER":"Unknown Point Feature","SITE_ID":"CUE","Latitude":-17.778682,"longitude":-63.188771},{"LAYER":"Unknown Point Feature","SITE_ID":"CUH","Latitude":-17.840139,"longitude":-68.41075},{"LAYER":"Unknown Point Feature","SITE_ID":"CUL","Latitude":-20.824553,"longitude":-64.940353},{"LAYER":"Unknown Point Feature","SITE_ID":"CUM","Latitude":-17.78422,"longitude":-63.115887},{"LAYER":"Unknown Point Feature","SITE_ID":"CUN","Latitude":-17.77776,"longitude":-63.196097},{"LAYER":"Unknown Point Feature","SITE_ID":"CUP","Latitude":-17.832446,"longitude":-63.102107},{"LAYER":"Unknown Point Feature","SITE_ID":"CUR","Latitude":-17.826333,"longitude":-63.138194},{"LAYER":"Unknown Point Feature","SITE_ID":"CUS","Latitude":-17.728624,"longitude":-63.079913},{"LAYER":"Unknown Point Feature","SITE_ID":"CVC","Latitude":-15.83281,"longitude":-67.56638},{"LAYER":"Unknown Point Feature","SITE_ID":"CVH","Latitude":-16.617962,"longitude":-68.264138},{"LAYER":"Unknown Point Feature","SITE_ID":"CVI","Latitude":-17.401944,"longitude":-66.329586},{"LAYER":"Unknown Point Feature","SITE_ID":"CVL","Latitude":-17.337818,"longitude":-63.252149},{"LAYER":"Unknown Point Feature","SITE_ID":"CVO","Latitude":-20.44406,"longitude":-63.4989},{"LAYER":"Unknown Point Feature","SITE_ID":"CVR","Latitude":-17.416149,"longitude":-66.14528},{"LAYER":"Unknown Point Feature","SITE_ID":"CVT","Latitude":-17.741149,"longitude":-63.179832},{"LAYER":"Unknown Point Feature","SITE_ID":"CYA","Latitude":-22.011417,"longitude":-63.677028},{"LAYER":"Unknown Point Feature","SITE_ID":"CYP","Latitude":-19.078723,"longitude":-65.2577},{"LAYER":"Unknown Point Feature","SITE_ID":"CYT","Latitude":-18.463094,"longitude":-66.480412},{"LAYER":"Unknown Point Feature","SITE_ID":"CZD","Latitude":-20.0087,"longitude":-65.65908},{"LAYER":"Unknown Point Feature","SITE_ID":"CZE","Latitude":-21.798655,"longitude":-63.561233},{"LAYER":"Unknown Point Feature","SITE_ID":"CZM","Latitude":-18.768835,"longitude":-68.313586},{"LAYER":"Unknown Point Feature","SITE_ID":"D23","Latitude":-17.775237,"longitude":-63.116417},{"LAYER":"Unknown Point Feature","SITE_ID":"D317","Latitude":-19.041656,"longitude":-65.247714},{"LAYER":"Unknown Point Feature","SITE_ID":"DAL","Latitude":-17.976083,"longitude":-67.053861},{"LAYER":"Unknown Point Feature","SITE_ID":"DAMB","Latitude":-17.768209,"longitude":-63.194268},{"LAYER":"Unknown Point Feature","SITE_ID":"DBO","Latitude":-16.53270521,"longitude":-68.16245051},{"LAYER":"Unknown Point Feature","SITE_ID":"DDI","Latitude":-19.507661,"longitude":-65.605811},{"LAYER":"Unknown Point Feature","SITE_ID":"DEL","Latitude":-16.472775,"longitude":-68.122278},{"LAYER":"Unknown Point Feature","SITE_ID":"DES","Latitude":-16.56602633,"longitude":-69.0329236},{"LAYER":"Unknown Point Feature","SITE_ID":"DIC","Latitude":-17.815444,"longitude":-63.138556},{"LAYER":"Unknown Point Feature","SITE_ID":"DIR","Latitude":-19.568311,"longitude":-65.76775},{"LAYER":"Unknown Point Feature","SITE_ID":"DLZ","Latitude":-17.808632,"longitude":-62.882026},{"LAYER":"Unknown Point Feature","SITE_ID":"DSU","Latitude":-17.81466,"longitude":-63.206368},{"LAYER":"Unknown Point Feature","SITE_ID":"DUM","Latitude":-17.814667,"longitude":-63.183333},{"LAYER":"Unknown Point Feature","SITE_ID":"E4C","Latitude":-21.532394,"longitude":-64.725821},{"LAYER":"Unknown Point Feature","SITE_ID":"EAB","Latitude":-17.392099,"longitude":-66.1131},{"LAYER":"Unknown Point Feature","SITE_ID":"EAL","Latitude":-16.507392,"longitude":-68.128237},{"LAYER":"Unknown Point Feature","SITE_ID":"EAR","Latitude":-17.80246,"longitude":-63.15829},{"LAYER":"Unknown Point Feature","SITE_ID":"EBI","Latitude":-17.794,"longitude":-63.0167},{"LAYER":"Unknown Point Feature","SITE_ID":"EBT","Latitude":-20.026543,"longitude":-63.534645},{"LAYER":"Unknown Point Feature","SITE_ID":"EBU","Latitude":-16.49155,"longitude":-68.10984},{"LAYER":"Unknown Point Feature","SITE_ID":"ECB","Latitude":-16.497751,"longitude":-68.125182},{"LAYER":"Unknown Point Feature","SITE_ID":"ECC","Latitude":-16.499961,"longitude":-68.09658},{"LAYER":"Unknown Point Feature","SITE_ID":"ECH","Latitude":-17.766989,"longitude":-63.194011},{"LAYER":"Unknown Point Feature","SITE_ID":"ECHO","Latitude":-18.89458,"longitude":-65.11413},{"LAYER":"Unknown Point Feature","SITE_ID":"ECO","Latitude":-17.768097,"longitude":-63.106851},{"LAYER":"Unknown Point Feature","SITE_ID":"ECS","Latitude":-16.506722,"longitude":-68.133861},{"LAYER":"Unknown Point Feature","SITE_ID":"ECU","Latitude":-16.50931,"longitude":-68.13081},{"LAYER":"Unknown Point Feature","SITE_ID":"EDC","Latitude":-17.760785,"longitude":-63.202003},{"LAYER":"Unknown Point Feature","SITE_ID":"EDE","Latitude":-17.79968,"longitude":-63.16806},{"LAYER":"Unknown Point Feature","SITE_ID":"EDI","Latitude":-17.785107,"longitude":-63.193875},{"LAYER":"Unknown Point Feature","SITE_ID":"EDM","Latitude":-16.532583,"longitude":-68.074553},{"LAYER":"Unknown Point Feature","SITE_ID":"EDN","Latitude":-16.462813,"longitude":-68.207113},{"LAYER":"Unknown Point Feature","SITE_ID":"EDU","Latitude":-16.500611,"longitude":-68.155222},{"LAYER":"Unknown Point Feature","SITE_ID":"EFD","Latitude":-16.463634,"longitude":-68.280144},{"LAYER":"Unknown Point Feature","SITE_ID":"EFI","Latitude":-16.471311,"longitude":-68.175411},{"LAYER":"Unknown Point Feature","SITE_ID":"EFL","Latitude":-16.523224,"longitude":-68.121511},{"LAYER":"Unknown Point Feature","SITE_ID":"EFT","Latitude":-16.504457,"longitude":-68.131844},{"LAYER":"Unknown Point Feature","SITE_ID":"EGL","Latitude":-17.854639,"longitude":-63.103861},{"LAYER":"Unknown Point Feature","SITE_ID":"EGM","Latitude":-14.818389,"longitude":-64.893663},{"LAYER":"Unknown Point Feature","SITE_ID":"EGP","Latitude":-17.348,"longitude":-63.260528},{"LAYER":"Unknown Point Feature","SITE_ID":"EGR","Latitude":-19.053532,"longitude":-65.252793},{"LAYER":"Unknown Point Feature","SITE_ID":"EGU","Latitude":-16.492639,"longitude":-68.139871},{"LAYER":"Unknown Point Feature","SITE_ID":"EGY","Latitude":-16.512848,"longitude":-68.131009},{"LAYER":"Unknown Point Feature","SITE_ID":"EHO","Latitude":-16.5384,"longitude":-68.03101},{"LAYER":"Unknown Point Feature","SITE_ID":"EHV","Latitude":-16.60378291,"longitude":-68.25386855},{"LAYER":"Unknown Point Feature","SITE_ID":"EJE","Latitude":-21.54003,"longitude":-64.72861},{"LAYER":"Unknown Point Feature","SITE_ID":"ELO","Latitude":-16.49844,"longitude":-68.14636},{"LAYER":"Unknown Point Feature","SITE_ID":"ELO_","Latitude":-16.49906993,"longitude":-68.14630298},{"LAYER":"Unknown Point Feature","SITE_ID":"ELP","Latitude":-11.137733,"longitude":-68.360603},{"LAYER":"Unknown Point Feature","SITE_ID":"EM16","Latitude":-16.502316,"longitude":-68.131931},{"LAYER":"Unknown Point Feature","SITE_ID":"EM20","Latitude":-16.507231,"longitude":-68.129457},{"LAYER":"Unknown Point Feature","SITE_ID":"EMB","Latitude":-16.498387,"longitude":-68.133346},{"LAYER":"Unknown Point Feature","SITE_ID":"EMBS","Latitude":-16.502165,"longitude":-68.1340561},{"LAYER":"Unknown Point Feature","SITE_ID":"EMC1","Latitude":-16.505465,"longitude":-68.162439},{"LAYER":"Unknown Point Feature","SITE_ID":"EMC2","Latitude":-16.506935,"longitude":-68.161604},{"LAYER":"Unknown Point Feature","SITE_ID":"EMCL","Latitude":-16.506281,"longitude":-68.163813},{"LAYER":"Unknown Point Feature","SITE_ID":"EMCO","Latitude":-16.49496,"longitude":-68.135524},{"LAYER":"Unknown Point Feature","SITE_ID":"EMCQ","Latitude":-16.4977,"longitude":-68.1446},{"LAYER":"Unknown Point Feature","SITE_ID":"EME","Latitude":-17.93327,"longitude":-63.10493},{"LAYER":"Unknown Point Feature","SITE_ID":"EMM","Latitude":-19.573528,"longitude":-65.764211},{"LAYER":"Unknown Point Feature","SITE_ID":"EMMC","Latitude":-16.4969,"longitude":-68.1385},{"LAYER":"Unknown Point Feature","SITE_ID":"EMML","Latitude":-16.495287,"longitude":-68.137394},{"LAYER":"Unknown Point Feature","SITE_ID":"EMMR","Latitude":-16.496972,"longitude":-68.13768},{"LAYER":"Unknown Point Feature","SITE_ID":"EMN","Latitude":-16.539015,"longitude":-68.176607},{"LAYER":"Unknown Point Feature","SITE_ID":"EMP","Latitude":-19.042937,"longitude":-65.25081},{"LAYER":"Unknown Point Feature","SITE_ID":"EMPE","Latitude":-16.503903,"longitude":-68.130879},{"LAYER":"Unknown Point Feature","SITE_ID":"EMR","Latitude":-19.02772,"longitude":-65.246848},{"LAYER":"Unknown Point Feature","SITE_ID":"EMR2","Latitude":-19.026966,"longitude":-65.238667},{"LAYER":"Unknown Point Feature","SITE_ID":"EMT","Latitude":-17.388374,"longitude":-66.159935},{"LAYER":"Unknown Point Feature","SITE_ID":"EMYA","Latitude":-16.494744,"longitude":-68.134377},{"LAYER":"Unknown Point Feature","SITE_ID":"ENC","Latitude":-17.734274,"longitude":-62.934122},{"LAYER":"Unknown Point Feature","SITE_ID":"ENE","Latitude":-17.82078,"longitude":-63.214407},{"LAYER":"Unknown Point Feature","SITE_ID":"ENP","Latitude":-19.583583,"longitude":-65.75025},{"LAYER":"Unknown Point Feature","SITE_ID":"ENR","Latitude":-19.592611,"longitude":-65.761422},{"LAYER":"Unknown Point Feature","SITE_ID":"ENT","Latitude":-17.202027,"longitude":-64.535274},{"LAYER":"Unknown Point Feature","SITE_ID":"EOM","Latitude":-17.39657,"longitude":-66.157799},{"LAYER":"Unknown Point Feature","SITE_ID":"EPA","Latitude":-17.79807,"longitude":-63.18875},{"LAYER":"Unknown Point Feature","SITE_ID":"EPAL","Latitude":-16.707575,"longitude":-67.999104},{"LAYER":"Unknown Point Feature","SITE_ID":"EPI","Latitude":-17.637144,"longitude":-65.238847},{"LAYER":"Unknown Point Feature","SITE_ID":"EPO","Latitude":-11.235722,"longitude":-68.691722},{"LAYER":"Unknown Point Feature","SITE_ID":"EPR","Latitude":-21.56874,"longitude":-64.66747},{"LAYER":"Unknown Point Feature","SITE_ID":"EPT","Latitude":-21.237641,"longitude":-65.204374},{"LAYER":"Unknown Point Feature","SITE_ID":"EPV","Latitude":-16.50037705,"longitude":-68.12328891},{"LAYER":"Unknown Point Feature","SITE_ID":"EQI","Latitude":-17.75871,"longitude":-63.19949},{"LAYER":"Unknown Point Feature","SITE_ID":"ESC","Latitude":-15.666997,"longitude":-69.1225},{"LAYER":"Unknown Point Feature","SITE_ID":"ESCR","Latitude":-18.859576,"longitude":-68.170463},{"LAYER":"Unknown Point Feature","SITE_ID":"ESF","Latitude":-11.109775,"longitude":-67.933258},{"LAYER":"Unknown Point Feature","SITE_ID":"ESG","Latitude":-16.379075,"longitude":-60.971002},{"LAYER":"Unknown Point Feature","SITE_ID":"ESH","Latitude":-17.73805,"longitude":-63.1647},{"LAYER":"Unknown Point Feature","SITE_ID":"ESI","Latitude":-16.475222,"longitude":-68.150028},{"LAYER":"Unknown Point Feature","SITE_ID":"ESM","Latitude":-18.846663,"longitude":-68.280011},{"LAYER":"Unknown Point Feature","SITE_ID":"ESN","Latitude":-11.47444,"longitude":-67.24139},{"LAYER":"Unknown Point Feature","SITE_ID":"ESP","Latitude":-17.781216,"longitude":-63.185283},{"LAYER":"Unknown Point Feature","SITE_ID":"ESQ","Latitude":-17.391332,"longitude":-66.271538},{"LAYER":"Unknown Point Feature","SITE_ID":"EST","Latitude":-17.403817,"longitude":-66.15313},{"LAYER":"Unknown Point Feature","SITE_ID":"ESTR","Latitude":-16.592201,"longitude":-68.219012},{"LAYER":"Unknown Point Feature","SITE_ID":"ESV","Latitude":-17.802828,"longitude":-63.193825},{"LAYER":"Unknown Point Feature","SITE_ID":"ETD","Latitude":-17.41084,"longitude":-66.14991},{"LAYER":"Unknown Point Feature","SITE_ID":"ETE","Latitude":-16.832083,"longitude":-65.520833},{"LAYER":"Unknown Point Feature","SITE_ID":"ETF","Latitude":-17.868012,"longitude":-63.151207},{"LAYER":"Unknown Point Feature","SITE_ID":"ETR","Latitude":-21.526323,"longitude":-64.174647},{"LAYER":"Unknown Point Feature","SITE_ID":"ETT","Latitude":-17.668505,"longitude":-61.512675},{"LAYER":"Unknown Point Feature","SITE_ID":"EUC","Latitude":-17.594527,"longitude":-67.507778},{"LAYER":"Unknown Point Feature","SITE_ID":"EVA","Latitude":-17.842688,"longitude":-63.20535},{"LAYER":"Unknown Point Feature","SITE_ID":"EVI","Latitude":-16.646805,"longitude":-68.285049},{"LAYER":"Unknown Point Feature","SITE_ID":"EVL","Latitude":-19.627042,"longitude":-64.320029},{"LAYER":"Unknown Point Feature","SITE_ID":"EVU","Latitude":-19.579383,"longitude":-65.763461},{"LAYER":"Unknown Point Feature","SITE_ID":"EXA","Latitude":-13.321172,"longitude":-65.248337},{"LAYER":"Unknown Point Feature","SITE_ID":"EYB","Latitude":-22.025389,"longitude":-63.681806},{"LAYER":"Unknown Point Feature","SITE_ID":"EYT","Latitude":-19.785695,"longitude":-63.500355},{"LAYER":"Unknown Point Feature","SITE_ID":"F3PF","Latitude":-17.815569,"longitude":-63.072606},{"LAYER":"Unknown Point Feature","SITE_ID":"FAE","Latitude":-16.498514,"longitude":-68.193069},{"LAYER":"Unknown Point Feature","SITE_ID":"FAG","Latitude":-17.44471,"longitude":-66.133799},{"LAYER":"Unknown Point Feature","SITE_ID":"FAL","Latitude":-17.989419,"longitude":-67.134032},{"LAYER":"Unknown Point Feature","SITE_ID":"FAS","Latitude":-17.015389,"longitude":-63.219739},{"LAYER":"Unknown Point Feature","SITE_ID":"FAT","Latitude":-16.480328,"longitude":-68.120847},{"LAYER":"Unknown Point Feature","SITE_ID":"FBA","Latitude":-17.41833,"longitude":-66.15289},{"LAYER":"Unknown Point Feature","SITE_ID":"FBC","Latitude":-17.7795,"longitude":-63.14506},{"LAYER":"Unknown Point Feature","SITE_ID":"FCS","Latitude":-19.019408,"longitude":-65.250935},{"LAYER":"Unknown Point Feature","SITE_ID":"FDZ","Latitude":-16.548123,"longitude":-68.20984},{"LAYER":"Unknown Point Feature","SITE_ID":"FEI","Latitude":-17.422059,"longitude":-66.128159},{"LAYER":"Unknown Point Feature","SITE_ID":"FEJ","Latitude":-16.49254,"longitude":-68.17257},{"LAYER":"Unknown Point Feature","SITE_ID":"FEL","Latitude":-17.378944,"longitude":-66.167472},{"LAYER":"Unknown Point Feature","SITE_ID":"FER","Latitude":-17.78473,"longitude":-63.19797},{"LAYER":"Unknown Point Feature","SITE_ID":"FERR_","Latitude":-16.45986,"longitude":-68.15063},{"LAYER":"Unknown Point Feature","SITE_ID":"FEX","Latitude":-17.78263,"longitude":-63.20403},{"LAYER":"Unknown Point Feature","SITE_ID":"FICS","Latitude":-21.488498,"longitude":-64.716459},{"LAYER":"Unknown Point Feature","SITE_ID":"FKT","Latitude":-16.538806,"longitude":-68.170639},{"LAYER":"Unknown Point Feature","SITE_ID":"FLF","Latitude":-11.3425,"longitude":-68.760553},{"LAYER":"Unknown Point Feature","SITE_ID":"FLJ","Latitude":-17.737141,"longitude":-63.06672},{"LAYER":"Unknown Point Feature","SITE_ID":"FLO","Latitude":-16.54666,"longitude":-68.08495},{"LAYER":"Unknown Point Feature","SITE_ID":"FMD","Latitude":-19.043839,"longitude":-65.267211},{"LAYER":"Unknown Point Feature","SITE_ID":"FMN","Latitude":-17.3945,"longitude":-66.302472},{"LAYER":"Unknown Point Feature","SITE_ID":"FMO","Latitude":-17.316286,"longitude":-63.274081},{"LAYER":"Unknown Point Feature","SITE_ID":"FMU","Latitude":-16.507454,"longitude":-68.154802},{"LAYER":"Unknown Point Feature","SITE_ID":"FMZ","Latitude":-16.65952373,"longitude":-68.17617961},{"LAYER":"Unknown Point Feature","SITE_ID":"FNI","Latitude":-17.998917,"longitude":-67.136917},{"LAYER":"Unknown Point Feature","SITE_ID":"FOI","Latitude":-17.794718,"longitude":-63.14677},{"LAYER":"Unknown Point Feature","SITE_ID":"FPA","Latitude":-17.3835278,"longitude":-66.10925},{"LAYER":"Unknown Point Feature","SITE_ID":"FRA","Latitude":-17.575607,"longitude":-63.158789},{"LAYER":"Unknown Point Feature","SITE_ID":"FRA2","Latitude":-17.58834,"longitude":-63.14913},{"LAYER":"Unknown Point Feature","SITE_ID":"FRI","Latitude":-17.767395,"longitude":-63.051773},{"LAYER":"Unknown Point Feature","SITE_ID":"FRT","Latitude":-21.5065,"longitude":-64.7313},{"LAYER":"Unknown Point Feature","SITE_ID":"FRV","Latitude":-17.732819,"longitude":-63.175795},{"LAYER":"Unknown Point Feature","SITE_ID":"FSA","Latitude":-16.54081933,"longitude":-68.07214987},{"LAYER":"Unknown Point Feature","SITE_ID":"FSC","Latitude":-17.78441,"longitude":-63.21166},{"LAYER":"Unknown Point Feature","SITE_ID":"FSM","Latitude":-21.46031,"longitude":-64.78073},{"LAYER":"Unknown Point Feature","SITE_ID":"FTJ","Latitude":-21.573831,"longitude":-64.696018},{"LAYER":"Unknown Point Feature","SITE_ID":"FTM","Latitude":-16.51281,"longitude":-68.155876},{"LAYER":"Unknown Point Feature","SITE_ID":"FTV","Latitude":-17.7476,"longitude":-63.097291},{"LAYER":"Unknown Point Feature","SITE_ID":"FVD","Latitude":-16.48472,"longitude":-68.23724},{"LAYER":"Unknown Point Feature","SITE_ID":"FVM","Latitude":-21.267832,"longitude":-63.445873},{"LAYER":"Unknown Point Feature","SITE_ID":"FWC","Latitude":-17.359765,"longitude":-66.186367},{"LAYER":"Unknown Point Feature","SITE_ID":"FXB","Latitude":-14.81111,"longitude":-64.9043},{"LAYER":"Unknown Point Feature","SITE_ID":"G77","Latitude":-17.701034,"longitude":-63.130622},{"LAYER":"Unknown Point Feature","SITE_ID":"GAB","Latitude":-17.7809,"longitude":-63.192806},{"LAYER":"Unknown Point Feature","SITE_ID":"GAY","Latitude":-15.48344,"longitude":-67.859919},{"LAYER":"Unknown Point Feature","SITE_ID":"GAY2","Latitude":-15.498745,"longitude":-67.882595},{"LAYER":"Unknown Point Feature","SITE_ID":"GBR","Latitude":-17.315462,"longitude":-63.26997},{"LAYER":"Unknown Point Feature","SITE_ID":"GBR2","Latitude":-17.29555,"longitude":-63.27048},{"LAYER":"Unknown Point Feature","SITE_ID":"GHL","Latitude":-21.529387,"longitude":-64.730988},{"LAYER":"Unknown Point Feature","SITE_ID":"GIL","Latitude":-17.790196,"longitude":-63.182812},{"LAYER":"Unknown Point Feature","SITE_ID":"GLA","Latitude":-17.820898,"longitude":-63.117609},{"LAYER":"Unknown Point Feature","SITE_ID":"GMB","Latitude":-17.76745,"longitude":-63.240771},{"LAYER":"Unknown Point Feature","SITE_ID":"GMR","Latitude":-16.520414,"longitude":-68.10829},{"LAYER":"Unknown Point Feature","SITE_ID":"GPI","Latitude":-17.76458,"longitude":-63.08483},{"LAYER":"Unknown Point Feature","SITE_ID":"GPY","Latitude":-17.852189,"longitude":-63.193458},{"LAYER":"Unknown Point Feature","SITE_ID":"GQI","Latitude":-16.598398,"longitude":-68.836439},{"LAYER":"Unknown Point Feature","SITE_ID":"GRA","Latitude":-17.740801,"longitude":-63.099637},{"LAYER":"Unknown Point Feature","SITE_ID":"GRC","Latitude":-17.786373,"longitude":-63.141417},{"LAYER":"Unknown Point Feature","SITE_ID":"GRE","Latitude":-16.54085,"longitude":-68.08698},{"LAYER":"Unknown Point Feature","SITE_ID":"GRL","Latitude":-17.81207,"longitude":-63.17485},{"LAYER":"Unknown Point Feature","SITE_ID":"GRP","Latitude":-16.509167,"longitude":-68.149139},{"LAYER":"Unknown Point Feature","SITE_ID":"GRT","Latitude":-17.769881,"longitude":-63.1779},{"LAYER":"Unknown Point Feature","SITE_ID":"GUA","Latitude":-17.899465,"longitude":-63.316602},{"LAYER":"Unknown Point Feature","SITE_ID":"GUA2","Latitude":-17.924348,"longitude":-63.282423},{"LAYER":"Unknown Point Feature","SITE_ID":"GUE","Latitude":-17.80544,"longitude":-63.13428},{"LAYER":"Unknown Point Feature","SITE_ID":"GUT","Latitude":-19.421917,"longitude":-63.531556},{"LAYER":"Unknown Point Feature","SITE_ID":"GVL","Latitude":-17.447541,"longitude":-66.109984},{"LAYER":"Unknown Point Feature","SITE_ID":"GVR","Latitude":-17.96652,"longitude":-67.11201},{"LAYER":"Unknown Point Feature","SITE_ID":"GY2","Latitude":-10.824814,"longitude":-65.355686},{"LAYER":"Unknown Point Feature","SITE_ID":"GY3","Latitude":-10.83945,"longitude":-65.358},{"LAYER":"Unknown Point Feature","SITE_ID":"GY4","Latitude":-10.8334,"longitude":-65.3446},{"LAYER":"Unknown Point Feature","SITE_ID":"GY5","Latitude":-10.809178,"longitude":-65.366423},{"LAYER":"Unknown Point Feature","SITE_ID":"GYAE","Latitude":-10.82209,"longitude":-65.34321},{"LAYER":"Unknown Point Feature","SITE_ID":"GYM","Latitude":-10.811683,"longitude":-65.35332},{"LAYER":"Unknown Point Feature","SITE_ID":"HAC","Latitude":-17.74354,"longitude":-63.15912},{"LAYER":"Unknown Point Feature","SITE_ID":"HAM","Latitude":-16.489128,"longitude":-68.115371},{"LAYER":"Unknown Point Feature","SITE_ID":"HAR","Latitude":-16.677926,"longitude":-63.615388},{"LAYER":"Unknown Point Feature","SITE_ID":"HAY","Latitude":-17.4004167,"longitude":-66.0796389},{"LAYER":"Unknown Point Feature","SITE_ID":"HAZ","Latitude":-17.782348,"longitude":-63.184012},{"LAYER":"Unknown Point Feature","SITE_ID":"HBO","Latitude":-17.962559,"longitude":-67.106988},{"LAYER":"Unknown Point Feature","SITE_ID":"HCG","Latitude":-16.5405,"longitude":-68.082583},{"LAYER":"Unknown Point Feature","SITE_ID":"HCH2","Latitude":-18.792941,"longitude":-68.261569},{"LAYER":"Unknown Point Feature","SITE_ID":"HCJ","Latitude":-13.59584,"longitude":-63.87665},{"LAYER":"Unknown Point Feature","SITE_ID":"HCN","Latitude":-17.75279,"longitude":-63.17498},{"LAYER":"Unknown Point Feature","SITE_ID":"HCR","Latitude":-17.756022,"longitude":-63.198783},{"LAYER":"Unknown Point Feature","SITE_ID":"HCT","Latitude":-20.36604,"longitude":-64.00216},{"LAYER":"Unknown Point Feature","SITE_ID":"HCY","Latitude":-20.74493,"longitude":-63.6653},{"LAYER":"Unknown Point Feature","SITE_ID":"HER","Latitude":-17.390314,"longitude":-66.147761},{"LAYER":"Unknown Point Feature","SITE_ID":"HIM","Latitude":-15.59044,"longitude":-68.06207},{"LAYER":"Unknown Point Feature","SITE_ID":"HIP","Latitude":-17.75884,"longitude":-63.17941},{"LAYER":"Unknown Point Feature","SITE_ID":"HJ2","Latitude":-17.937059,"longitude":-67.093644},{"LAYER":"Unknown Point Feature","SITE_ID":"HJC","Latitude":-16.628731,"longitude":-68.056371},{"LAYER":"Unknown Point Feature","SITE_ID":"HKP","Latitude":-17.39827,"longitude":-66.16572},{"LAYER":"Unknown Point Feature","SITE_ID":"HLC","Latitude":-21.53307,"longitude":-64.73928},{"LAYER":"Unknown Point Feature","SITE_ID":"HLQ","Latitude":-17.79255,"longitude":-63.19307},{"LAYER":"Unknown Point Feature","SITE_ID":"HMC","Latitude":-17.754126,"longitude":-63.16694},{"LAYER":"Unknown Point Feature","SITE_ID":"HMN","Latitude":-15.463802,"longitude":-69.127097},{"LAYER":"Unknown Point Feature","SITE_ID":"HMT1","Latitude":-17.761206,"longitude":-63.202376},{"LAYER":"Unknown Point Feature","SITE_ID":"HMT3","Latitude":-17.760867,"longitude":-63.20207},{"LAYER":"Unknown Point Feature","SITE_ID":"HNE","Latitude":-16.36869803,"longitude":-67.52607695},{"LAYER":"Unknown Point Feature","SITE_ID":"HOL","Latitude":-17.81083,"longitude":-63.16705},{"LAYER":"Unknown Point Feature","SITE_ID":"HPD","Latitude":-17.387444,"longitude":-66.186861},{"LAYER":"Unknown Point Feature","SITE_ID":"HPD_","Latitude":-17.38744,"longitude":-66.186856},{"LAYER":"Unknown Point Feature","SITE_ID":"HPL","Latitude":-17.969278,"longitude":-67.111194},{"LAYER":"Unknown Point Feature","SITE_ID":"HPT","Latitude":-16.474005,"longitude":-68.211605},{"LAYER":"Unknown Point Feature","SITE_ID":"HRB","Latitude":-16.53850404,"longitude":-68.07552699},{"LAYER":"Unknown Point Feature","SITE_ID":"HRI","Latitude":-19.0123,"longitude":-66.7794},{"LAYER":"Unknown Point Feature","SITE_ID":"HRN","Latitude":-16.209518,"longitude":-67.780301},{"LAYER":"Unknown Point Feature","SITE_ID":"HSF","Latitude":-21.536883,"longitude":-64.696588},{"LAYER":"Unknown Point Feature","SITE_ID":"HSM","Latitude":-19.05171,"longitude":-65.258225},{"LAYER":"Unknown Point Feature","SITE_ID":"HTJ","Latitude":-16.207,"longitude":-68.696791},{"LAYER":"Unknown Point Feature","SITE_ID":"HTK","Latitude":-16.520731,"longitude":-68.059334},{"LAYER":"Unknown Point Feature","SITE_ID":"HUAR","Latitude":-16.18514,"longitude":-68.61453},{"LAYER":"Unknown Point Feature","SITE_ID":"HUAY","Latitude":-17.840994,"longitude":-67.945841},{"LAYER":"Unknown Point Feature","SITE_ID":"HUC","Latitude":-17.376279,"longitude":-67.67732},{"LAYER":"Unknown Point Feature","SITE_ID":"HUM","Latitude":-16.546811,"longitude":-68.094176},{"LAYER":"Unknown Point Feature","SITE_ID":"HUN","Latitude":-18.291583,"longitude":-66.84125},{"LAYER":"Unknown Point Feature","SITE_ID":"HUN2","Latitude":-18.26818,"longitude":-66.86266},{"LAYER":"Unknown Point Feature","SITE_ID":"HVL","Latitude":-19.578211,"longitude":-65.75458},{"LAYER":"Unknown Point Feature","SITE_ID":"HVS","Latitude":-21.54757,"longitude":-64.73251},{"LAYER":"Unknown Point Feature","SITE_ID":"HYC","Latitude":-17.383939,"longitude":-66.05849},{"LAYER":"Unknown Point Feature","SITE_ID":"IBJ","Latitude":-22.692861,"longitude":-64.293611},{"LAYER":"Unknown Point Feature","SITE_ID":"IBO","Latitude":-17.3948,"longitude":-66.100499},{"LAYER":"Unknown Point Feature","SITE_ID":"IBU","Latitude":-16.9798,"longitude":-65.3431},{"LAYER":"Unknown Point Feature","SITE_ID":"IC2","Latitude":-17.38727,"longitude":-66.178387},{"LAYER":"Unknown Point Feature","SITE_ID":"ICH","Latitude":-17.227229,"longitude":-64.455678},{"LAYER":"Unknown Point Feature","SITE_ID":"ICHO","Latitude":-17.139833,"longitude":-67.187477},{"LAYER":"Unknown Point Feature","SITE_ID":"ICL","Latitude":-19.36326,"longitude":-64.78893},{"LAYER":"Unknown Point Feature","SITE_ID":"ICR","Latitude":-20.76715,"longitude":-64.8904},{"LAYER":"Unknown Point Feature","SITE_ID":"ICY","Latitude":-21.488056,"longitude":-64.956028},{"LAYER":"Unknown Point Feature","SITE_ID":"IDB","Latitude":-17.793911,"longitude":-63.176003},{"LAYER":"Unknown Point Feature","SITE_ID":"IDP","Latitude":-17.080312,"longitude":-66.821323},{"LAYER":"Unknown Point Feature","SITE_ID":"IDS","Latitude":-16.0612,"longitude":-69.1267},{"LAYER":"Unknown Point Feature","SITE_ID":"IFC","Latitude":-17.77644,"longitude":-63.15175},{"LAYER":"Unknown Point Feature","SITE_ID":"IGM","Latitude":-17.0999,"longitude":-63.2396},{"LAYER":"Unknown Point Feature","SITE_ID":"IGR","Latitude":-17.59104,"longitude":-63.17036},{"LAYER":"Unknown Point Feature","SITE_ID":"IHS","Latitude":-16.587584,"longitude":-68.197675},{"LAYER":"Unknown Point Feature","SITE_ID":"IHS2","Latitude":-16.584295,"longitude":-68.212614},{"LAYER":"Unknown Point Feature","SITE_ID":"IHUM","Latitude":-10.816756,"longitude":-66.448347},{"LAYER":"Unknown Point Feature","SITE_ID":"ILL","Latitude":-16.49954,"longitude":-68.13904},{"LAYER":"Unknown Point Feature","SITE_ID":"IND","Latitude":-17.95714,"longitude":-67.11075},{"LAYER":"Unknown Point Feature","SITE_ID":"ING","Latitude":-16.47795,"longitude":-68.20356},{"LAYER":"Unknown Point Feature","SITE_ID":"INQ","Latitude":-16.8607,"longitude":-67.1404},{"LAYER":"Unknown Point Feature","SITE_ID":"INT","Latitude":-17.847449,"longitude":-63.162236},{"LAYER":"Unknown Point Feature","SITE_ID":"IPA","Latitude":-17.722889,"longitude":-66.2875},{"LAYER":"Unknown Point Feature","SITE_ID":"IPT","Latitude":-19.753468,"longitude":-63.56477},{"LAYER":"Unknown Point Feature","SITE_ID":"IRC","Latitude":-17.36226,"longitude":-66.28438},{"LAYER":"Unknown Point Feature","SITE_ID":"IRC2","Latitude":-17.337986,"longitude":-66.290045},{"LAYER":"Unknown Point Feature","SITE_ID":"IRP","Latitude":-16.507476,"longitude":-68.089504},{"LAYER":"Unknown Point Feature","SITE_ID":"IRU","Latitude":-16.483177,"longitude":-67.433055},{"LAYER":"Unknown Point Feature","SITE_ID":"IRU2","Latitude":-16.46645,"longitude":-67.45471},{"LAYER":"Unknown Point Feature","SITE_ID":"ISA","Latitude":-17.80766,"longitude":-63.15546},{"LAYER":"Unknown Point Feature","SITE_ID":"ISC","Latitude":-17.789344,"longitude":-63.18928},{"LAYER":"Unknown Point Feature","SITE_ID":"ISI","Latitude":-16.736542,"longitude":-65.643627},{"LAYER":"Unknown Point Feature","SITE_ID":"ITA","Latitude":-17.720816,"longitude":-63.071204},{"LAYER":"Unknown Point Feature","SITE_ID":"ITG","Latitude":-17.838566,"longitude":-63.256539},{"LAYER":"Unknown Point Feature","SITE_ID":"ITK","Latitude":-21.262556,"longitude":-63.462078},{"LAYER":"Unknown Point Feature","SITE_ID":"IVI","Latitude":-17.03,"longitude":-64.858889},{"LAYER":"Unknown Point Feature","SITE_ID":"IVI2","Latitude":-17.060989,"longitude":-64.852294},{"LAYER":"Unknown Point Feature","SITE_ID":"IXM","Latitude":-13.772472,"longitude":-68.131833},{"LAYER":"Unknown Point Feature","SITE_ID":"IZA","Latitude":-17.13708,"longitude":-64.69074},{"LAYER":"Unknown Point Feature","SITE_ID":"J23","Latitude":-21.538988,"longitude":-64.716904},{"LAYER":"Unknown Point Feature","SITE_ID":"JAP","Latitude":-17.77279,"longitude":-63.15622},{"LAYER":"Unknown Point Feature","SITE_ID":"JAT","Latitude":-17.98553,"longitude":-67.15317},{"LAYER":"Unknown Point Feature","SITE_ID":"JBE","Latitude":-17.947699,"longitude":-67.11018},{"LAYER":"Unknown Point Feature","SITE_ID":"JDG","Latitude":-16.521796,"longitude":-68.05596},{"LAYER":"Unknown Point Feature","SITE_ID":"JDS","Latitude":-17.87017,"longitude":-63.12803},{"LAYER":"Unknown Point Feature","SITE_ID":"JFZ","Latitude":-17.816444,"longitude":-63.110083},{"LAYER":"Unknown Point Feature","SITE_ID":"JHY","Latitude":-17.415914,"longitude":-66.157998},{"LAYER":"Unknown Point Feature","SITE_ID":"JIP","Latitude":-17.51589,"longitude":-63.14128},{"LAYER":"Unknown Point Feature","SITE_ID":"JLO","Latitude":-17.37947,"longitude":-66.259217},{"LAYER":"Unknown Point Feature","SITE_ID":"JMA","Latitude":-16.7431,"longitude":-68.8082},{"LAYER":"Unknown Point Feature","SITE_ID":"JNA","Latitude":-16.5444,"longitude":-68.2223},{"LAYER":"Unknown Point Feature","SITE_ID":"JNL","Latitude":-19.033036,"longitude":-65.250252},{"LAYER":"Unknown Point Feature","SITE_ID":"JOR","Latitude":-18.054598,"longitude":-63.427658},{"LAYER":"Unknown Point Feature","SITE_ID":"JP2","Latitude":-17.393028,"longitude":-66.20056},{"LAYER":"Unknown Point Feature","SITE_ID":"JPB","Latitude":-17.78872,"longitude":-63.16693},{"LAYER":"Unknown Point Feature","SITE_ID":"JRG","Latitude":-17.732481,"longitude":-63.097671},{"LAYER":"Unknown Point Feature","SITE_ID":"JUAN","Latitude":-17.375889,"longitude":-66.180444},{"LAYER":"Unknown Point Feature","SITE_ID":"JUH","Latitude":-16.606871,"longitude":-68.187266},{"LAYER":"Unknown Point Feature","SITE_ID":"JUL","Latitude":-16.48732,"longitude":-68.193189},{"LAYER":"Unknown Point Feature","SITE_ID":"JUP","Latitude":-16.59181,"longitude":-68.07269},{"LAYER":"Unknown Point Feature","SITE_ID":"JVL","Latitude":-18.451711,"longitude":-66.597287},{"LAYER":"Unknown Point Feature","SITE_ID":"K12","Latitude":-17.863416,"longitude":-63.267823},{"LAYER":"Unknown Point Feature","SITE_ID":"K17","Latitude":-16.50784,"longitude":-68.1397},{"LAYER":"Unknown Point Feature","SITE_ID":"KAN","Latitude":-19.5945,"longitude":-65.7818},{"LAYER":"Unknown Point Feature","SITE_ID":"KLY","Latitude":-20.01513,"longitude":-66.76479},{"LAYER":"Unknown Point Feature","SITE_ID":"KOL","Latitude":-16.495045,"longitude":-68.152048},{"LAYER":"Unknown Point Feature","SITE_ID":"KON","Latitude":-17.436165,"longitude":-67.518573},{"LAYER":"Unknown Point Feature","SITE_ID":"KPQ","Latitude":-16.046111,"longitude":-68.800417},{"LAYER":"Unknown Point Feature","SITE_ID":"KRK","Latitude":-17.47435,"longitude":-66.12036},{"LAYER":"Unknown Point Feature","SITE_ID":"KUP","Latitude":-16.511295,"longitude":-68.09654},{"LAYER":"Unknown Point Feature","SITE_ID":"LAG","Latitude":-16.33477,"longitude":-68.65522},{"LAYER":"Unknown Point Feature","SITE_ID":"LAH","Latitude":-16.529511,"longitude":-68.047745},{"LAYER":"Unknown Point Feature","SITE_ID":"LAJ","Latitude":-16.536083,"longitude":-68.383139},{"LAYER":"Unknown Point Feature","SITE_ID":"LAL","Latitude":-17.768953,"longitude":-63.161286},{"LAYER":"Unknown Point Feature","SITE_ID":"LAN","Latitude":-18.156209,"longitude":-63.497887},{"LAYER":"Unknown Point Feature","SITE_ID":"LASU","Latitude":-14.8738,"longitude":-64.8608},{"LAYER":"Unknown Point Feature","SITE_ID":"LAZ","Latitude":-17.783192,"longitude":-63.164139},{"LAYER":"Unknown Point Feature","SITE_ID":"LBA","Latitude":-17.449523,"longitude":-63.18683},{"LAYER":"Unknown Point Feature","SITE_ID":"LBT","Latitude":-16.4979,"longitude":-68.132},{"LAYER":"Unknown Point Feature","SITE_ID":"LBY","Latitude":-15.819975,"longitude":-68.647359},{"LAYER":"Unknown Point Feature","SITE_ID":"LCA","Latitude":-17.778278,"longitude":-66.299694},{"LAYER":"Unknown Point Feature","SITE_ID":"LCC","Latitude":-17.791462,"longitude":-63.133855},{"LAYER":"Unknown Point Feature","SITE_ID":"LCH","Latitude":-17.74153,"longitude":-63.111001},{"LAYER":"Unknown Point Feature","SITE_ID":"LCL","Latitude":-17.189722,"longitude":-65.804111},{"LAYER":"Unknown Point Feature","SITE_ID":"LCM","Latitude":-17.435263,"longitude":-66.166309},{"LAYER":"Unknown Point Feature","SITE_ID":"LCN","Latitude":-17.953803,"longitude":-67.121774},{"LAYER":"Unknown Point Feature","SITE_ID":"LCO","Latitude":-17.775278,"longitude":-63.185975},{"LAYER":"Unknown Point Feature","SITE_ID":"LCP","Latitude":-17.40614,"longitude":-66.0948},{"LAYER":"Unknown Point Feature","SITE_ID":"LCR","Latitude":-21.20957,"longitude":-65.20899},{"LAYER":"Unknown Point Feature","SITE_ID":"LCS","Latitude":-17.799063,"longitude":-63.092427},{"LAYER":"Unknown Point Feature","SITE_ID":"LCS2","Latitude":-17.78319,"longitude":-63.08639},{"LAYER":"Unknown Point Feature","SITE_ID":"LCT","Latitude":-17.702786,"longitude":-63.160886},{"LAYER":"Unknown Point Feature","SITE_ID":"LCV","Latitude":-21.259149,"longitude":-63.450315},{"LAYER":"Unknown Point Feature","SITE_ID":"LCZ","Latitude":-16.29315,"longitude":-67.32282},{"LAYER":"Unknown Point Feature","SITE_ID":"LDA","Latitude":-17.3594,"longitude":-66.148694},{"LAYER":"Unknown Point Feature","SITE_ID":"LDC","Latitude":-16.54,"longitude":-68.133038},{"LAYER":"Unknown Point Feature","SITE_ID":"LDT","Latitude":-16.509541,"longitude":-68.136275},{"LAYER":"Unknown Point Feature","SITE_ID":"LEI","Latitude":-17.056666,"longitude":-63.892522},{"LAYER":"Unknown Point Feature","SITE_ID":"LGN","Latitude":-19.654472,"longitude":-63.674762},{"LAYER":"Unknown Point Feature","SITE_ID":"LGP","Latitude":-17.591557,"longitude":-62.673676},{"LAYER":"Unknown Point Feature","SITE_ID":"LGS","Latitude":-17.565081,"longitude":-65.88882},{"LAYER":"Unknown Point Feature","SITE_ID":"LI4","Latitude":-17.816243,"longitude":-63.100679},{"LAYER":"Unknown Point Feature","SITE_ID":"LIB","Latitude":-17.796151,"longitude":-63.116282},{"LAYER":"Unknown Point Feature","SITE_ID":"LIM","Latitude":-18.030497,"longitude":-63.40419},{"LAYER":"Unknown Point Feature","SITE_ID":"LIP","Latitude":-16.60980297,"longitude":-68.05927477},{"LAYER":"Unknown Point Feature","SITE_ID":"LIQ","Latitude":-17.572363,"longitude":-65.991015},{"LAYER":"Unknown Point Feature","SITE_ID":"LIS","Latitude":-17.368219,"longitude":-66.159189},{"LAYER":"Unknown Point Feature","SITE_ID":"LIT","Latitude":-16.728361,"longitude":-63.575556},{"LAYER":"Unknown Point Feature","SITE_ID":"LJT","Latitude":-19.01037,"longitude":-65.304204},{"LAYER":"Unknown Point Feature","SITE_ID":"LJT2","Latitude":-19.025401,"longitude":-65.303083},{"LAYER":"Unknown Point Feature","SITE_ID":"LLA","Latitude":-18.4259,"longitude":-66.5887},{"LAYER":"Unknown Point Feature","SITE_ID":"LLA2","Latitude":-18.415574,"longitude":-66.580253},{"LAYER":"Unknown Point Feature","SITE_ID":"LLB","Latitude":-16.527126,"longitude":-68.125658},{"LAYER":"Unknown Point Feature","SITE_ID":"LLCH","Latitude":-19.55381,"longitude":-65.755898},{"LAYER":"Unknown Point Feature","SITE_ID":"LLI","Latitude":-19.851133,"longitude":-68.248739},{"LAYER":"Unknown Point Feature","SITE_ID":"LLO_","Latitude":-16.53288,"longitude":-68.13925},{"LAYER":"Unknown Point Feature","SITE_ID":"LMA","Latitude":-16.580722,"longitude":-67.68869},{"LAYER":"Unknown Point Feature","SITE_ID":"LMC","Latitude":-17.80632,"longitude":-63.20753},{"LAYER":"Unknown Point Feature","SITE_ID":"LMCT","Latitude":-17.10556,"longitude":-62.69981},{"LAYER":"Unknown Point Feature","SITE_ID":"LMD","Latitude":-21.535503,"longitude":-64.729803},{"LAYER":"Unknown Point Feature","SITE_ID":"LMDR","Latitude":-17.10556,"longitude":-62.69981},{"LAYER":"Unknown Point Feature","SITE_ID":"LMN","Latitude":-17.847023,"longitude":-63.086538},{"LAYER":"Unknown Point Feature","SITE_ID":"LMPT","Latitude":-16.439193,"longitude":-68.141388},{"LAYER":"Unknown Point Feature","SITE_ID":"LND","Latitude":-17.78492,"longitude":-63.18923},{"LAYER":"Unknown Point Feature","SITE_ID":"LNG","Latitude":-18.059996,"longitude":-64.117124},{"LAYER":"Unknown Point Feature","SITE_ID":"LOA","Latitude":-17.0751,"longitude":-63.4877},{"LAYER":"Unknown Point Feature","SITE_ID":"LOB","Latitude":-15.188889,"longitude":-64.754984},{"LAYER":"Unknown Point Feature","SITE_ID":"LOM","Latitude":-16.52508,"longitude":-68.13775},{"LAYER":"Unknown Point Feature","SITE_ID":"LOR","Latitude":-17.42029,"longitude":-66.16097},{"LAYER":"Unknown Point Feature","SITE_ID":"LOT","Latitude":-17.866483,"longitude":-63.167354},{"LAYER":"Unknown Point Feature","SITE_ID":"LOY","Latitude":-19.021214,"longitude":-65.253896},{"LAYER":"Unknown Point Feature","SITE_ID":"LPAS","Latitude":-17.89202,"longitude":-63.08089},{"LAYER":"Unknown Point Feature","SITE_ID":"LPI","Latitude":-18.255022,"longitude":-63.944617},{"LAYER":"Unknown Point Feature","SITE_ID":"LPM","Latitude":-18.957386,"longitude":-65.135494},{"LAYER":"Unknown Point Feature","SITE_ID":"LPO","Latitude":-16.490083,"longitude":-68.166714},{"LAYER":"Unknown Point Feature","SITE_ID":"LPOR3","Latitude":-17.64985,"longitude":-67.29091},{"LAYER":"Unknown Point Feature","SITE_ID":"LPQI","Latitude":-17.744981,"longitude":-63.135072},{"LAYER":"Unknown Point Feature","SITE_ID":"LPZ","Latitude":-19.055995,"longitude":-65.257453},{"LAYER":"Unknown Point Feature","SITE_ID":"LPZORU1","Latitude":-16.906734,"longitude":-68.100954},{"LAYER":"Unknown Point Feature","SITE_ID":"LPZORU2","Latitude":-17.163378,"longitude":-67.941308},{"LAYER":"Unknown Point Feature","SITE_ID":"LRI","Latitude":-19.00491305,"longitude":-68.63998},{"LAYER":"Unknown Point Feature","SITE_ID":"LSJ","Latitude":-21.525144,"longitude":-64.737797},{"LAYER":"Unknown Point Feature","SITE_ID":"LSS","Latitude":-17.72796,"longitude":-63.180995},{"LAYER":"Unknown Point Feature","SITE_ID":"LST","Latitude":-16.51922,"longitude":-68.127449},{"LAYER":"Unknown Point Feature","SITE_ID":"LSU","Latitude":-14.76193,"longitude":-64.96274},{"LAYER":"Unknown Point Feature","SITE_ID":"LTA","Latitude":-17.702971,"longitude":-63.146975},{"LAYER":"Unknown Point Feature","SITE_ID":"LTM","Latitude":-16.543979,"longitude":-68.059939},{"LAYER":"Unknown Point Feature","SITE_ID":"LTO","Latitude":-17.068239,"longitude":-62.64071},{"LAYER":"Unknown Point Feature","SITE_ID":"LTR","Latitude":-14.84276,"longitude":-64.89659},{"LAYER":"Unknown Point Feature","SITE_ID":"LTX","Latitude":-16.77273,"longitude":-67.17767},{"LAYER":"Unknown Point Feature","SITE_ID":"LUR","Latitude":-17.062512,"longitude":-67.661242},{"LAYER":"Unknown Point Feature","SITE_ID":"LYR","Latitude":-16.51418,"longitude":-68.13329},{"LAYER":"Unknown Point Feature","SITE_ID":"MAB","Latitude":-16.48979842,"longitude":-68.13679262},{"LAYER":"Unknown Point Feature","SITE_ID":"MAC","Latitude":-20.819422,"longitude":-63.352444},{"LAYER":"Unknown Point Feature","SITE_ID":"MAD","Latitude":-17.80494,"longitude":-63.27877},{"LAYER":"Unknown Point Feature","SITE_ID":"MAE","Latitude":-16.472043,"longitude":-68.11605},{"LAYER":"Unknown Point Feature","SITE_ID":"MAF","Latitude":-16.5240609,"longitude":-68.10115953},{"LAYER":"Unknown Point Feature","SITE_ID":"MAG","Latitude":-19.800889,"longitude":-63.95975},{"LAYER":"Unknown Point Feature","SITE_ID":"MAI","Latitude":-18.122653,"longitude":-63.959952},{"LAYER":"Unknown Point Feature","SITE_ID":"MAI2","Latitude":-17.41869,"longitude":-66.17062},{"LAYER":"Unknown Point Feature","SITE_ID":"MAL","Latitude":-16.503,"longitude":-68.1393},{"LAYER":"Unknown Point Feature","SITE_ID":"MAP","Latitude":-15.322006,"longitude":-68.243084},{"LAYER":"Unknown Point Feature","SITE_ID":"MAP2","Latitude":-15.30477,"longitude":-68.214037},{"LAYER":"Unknown Point Feature","SITE_ID":"MAR","Latitude":-16.511526,"longitude":-68.165062},{"LAYER":"Unknown Point Feature","SITE_ID":"MAT","Latitude":-17.770528,"longitude":-63.124882},{"LAYER":"Unknown Point Feature","SITE_ID":"MAX","Latitude":-17.43395,"longitude":-66.157896},{"LAYER":"Unknown Point Feature","SITE_ID":"MBA","Latitude":-19.574817,"longitude":-65.755475},{"LAYER":"Unknown Point Feature","SITE_ID":"MBE","Latitude":-17.75632,"longitude":-63.18697},{"LAYER":"Unknown Point Feature","SITE_ID":"MBLI","Latitude":-17.789045,"longitude":-63.15299},{"LAYER":"Unknown Point Feature","SITE_ID":"MBO","Latitude":-17.968278,"longitude":-67.106083},{"LAYER":"Unknown Point Feature","SITE_ID":"MBR","Latitude":-16.492157,"longitude":-68.121666},{"LAYER":"Unknown Point Feature","SITE_ID":"MCD","Latitude":-17.787806,"longitude":-63.194193},{"LAYER":"Unknown Point Feature","SITE_ID":"MCEA","Latitude":-16.508886,"longitude":-68.155108},{"LAYER":"Unknown Point Feature","SITE_ID":"MCH","Latitude":-18.167219,"longitude":-67.003044},{"LAYER":"Unknown Point Feature","SITE_ID":"MCL","Latitude":-19.04821,"longitude":-65.25908},{"LAYER":"Unknown Point Feature","SITE_ID":"MCM","Latitude":-21.52075,"longitude":-64.742636},{"LAYER":"Unknown Point Feature","SITE_ID":"MCN","Latitude":-16.511564,"longitude":-68.122453},{"LAYER":"Unknown Point Feature","SITE_ID":"MCR","Latitude":-17.342778,"longitude":-63.255556},{"LAYER":"Unknown Point Feature","SITE_ID":"MCV","Latitude":-17.36199,"longitude":-66.15965},{"LAYER":"Unknown Point Feature","SITE_ID":"MDL","Latitude":-13.255079,"longitude":-64.057684},{"LAYER":"Unknown Point Feature","SITE_ID":"MDT","Latitude":-17.373653,"longitude":-66.185647},{"LAYER":"Unknown Point Feature","SITE_ID":"MEC","Latitude":-17.82624,"longitude":-63.11116},{"LAYER":"Unknown Point Feature","SITE_ID":"MEG","Latitude":-17.406697,"longitude":-66.156434},{"LAYER":"Unknown Point Feature","SITE_ID":"MEL","Latitude":-17.78338,"longitude":-63.17131},{"LAYER":"Unknown Point Feature","SITE_ID":"MEN","Latitude":-19.041597,"longitude":-65.25602},{"LAYER":"Unknown Point Feature","SITE_ID":"MER","Latitude":-17.788284,"longitude":-63.185465},{"LAYER":"Unknown Point Feature","SITE_ID":"MES","Latitude":-17.368447,"longitude":-66.139681},{"LAYER":"Unknown Point Feature","SITE_ID":"MET","Latitude":-17.98225,"longitude":-67.107417},{"LAYER":"Unknown Point Feature","SITE_ID":"MEXP","Latitude":-17.784223,"longitude":-63.208389},{"LAYER":"Unknown Point Feature","SITE_ID":"MGA","Latitude":-17.42515,"longitude":-65.90773},{"LAYER":"Unknown Point Feature","SITE_ID":"MGC","Latitude":-16.532329,"longitude":-68.087205},{"LAYER":"Unknown Point Feature","SITE_ID":"MGR","Latitude":-17.836307,"longitude":-63.19598},{"LAYER":"Unknown Point Feature","SITE_ID":"MGT","Latitude":-17.786285,"longitude":-63.132202},{"LAYER":"Unknown Point Feature","SITE_ID":"MHO","Latitude":-17.6388,"longitude":-62.82042},{"LAYER":"Unknown Point Feature","SITE_ID":"MIC","Latitude":-17.417521,"longitude":-66.205414},{"LAYER":"Unknown Point Feature","SITE_ID":"MIG","Latitude":-16.53026,"longitude":-67.35887},{"LAYER":"Unknown Point Feature","SITE_ID":"MIL","Latitude":-17.799331,"longitude":-63.201701},{"LAYER":"Unknown Point Feature","SITE_ID":"MIN","Latitude":-17.120931,"longitude":-63.228789},{"LAYER":"Unknown Point Feature","SITE_ID":"MIR","Latitude":-16.4969,"longitude":-68.1222},{"LAYER":"Unknown Point Feature","SITE_ID":"MIS","Latitude":-17.84162,"longitude":-63.18139},{"LAYER":"Unknown Point Feature","SITE_ID":"MIZ","Latitude":-17.9223,"longitude":-65.3291},{"LAYER":"Unknown Point Feature","SITE_ID":"MJT","Latitude":-21.764009,"longitude":-66.238261},{"LAYER":"Unknown Point Feature","SITE_ID":"MKC","Latitude":-17.180375,"longitude":-64.561652},{"LAYER":"Unknown Point Feature","SITE_ID":"MKLY","Latitude":-17.7742753,"longitude":-63.1432001},{"LAYER":"Unknown Point Feature","SITE_ID":"MLA","Latitude":-17.040112,"longitude":-67.450583},{"LAYER":"Unknown Point Feature","SITE_ID":"MLB","Latitude":-21.992706,"longitude":-63.672428},{"LAYER":"Unknown Point Feature","SITE_ID":"MLBR","Latitude":-17.749439,"longitude":-63.175983},{"LAYER":"Unknown Point Feature","SITE_ID":"MLG","Latitude":-17.895135,"longitude":-63.326195},{"LAYER":"Unknown Point Feature","SITE_ID":"MLR","Latitude":-17.416556,"longitude":-66.356778},{"LAYER":"Unknown Point Feature","SITE_ID":"MLV","Latitude":-17.79839,"longitude":-63.13454},{"LAYER":"Unknown Point Feature","SITE_ID":"MME","Latitude":-17.733855,"longitude":-63.159477},{"LAYER":"Unknown Point Feature","SITE_ID":"MMN","Latitude":-17.5841,"longitude":-66.052953},{"LAYER":"Unknown Point Feature","SITE_ID":"MMS","Latitude":-19.091931,"longitude":-65.750556},{"LAYER":"Unknown Point Feature","SITE_ID":"MMUT","Latitude":-17.764178,"longitude":-63.160887},{"LAYER":"Unknown Point Feature","SITE_ID":"MMY","Latitude":-16.4898,"longitude":-68.15822},{"LAYER":"Unknown Point Feature","SITE_ID":"MNE","Latitude":-17.335276,"longitude":-62.485485},{"LAYER":"Unknown Point Feature","SITE_ID":"MNG","Latitude":-17.79307,"longitude":-63.217606},{"LAYER":"Unknown Point Feature","SITE_ID":"MOC","Latitude":-15.460487,"longitude":-68.999029},{"LAYER":"Unknown Point Feature","SITE_ID":"MOE","Latitude":-19.572723,"longitude":-65.773516},{"LAYER":"Unknown Point Feature","SITE_ID":"MOJ","Latitude":-18.791727,"longitude":-64.627872},{"LAYER":"Unknown Point Feature","SITE_ID":"MON","Latitude":-17.33655,"longitude":-63.259883},{"LAYER":"Unknown Point Feature","SITE_ID":"MON3","Latitude":-17.345536,"longitude":-63.249683},{"LAYER":"Unknown Point Feature","SITE_ID":"MON4","Latitude":-17.348822,"longitude":-63.270424},{"LAYER":"Unknown Point Feature","SITE_ID":"MON6","Latitude":-17.3604,"longitude":-63.2231},{"LAYER":"Unknown Point Feature","SITE_ID":"MON7","Latitude":-17.317287,"longitude":-63.243161},{"LAYER":"Unknown Point Feature","SITE_ID":"MON8","Latitude":-17.3339,"longitude":-63.2766},{"LAYER":"Unknown Point Feature","SITE_ID":"MOR","Latitude":-18.454519,"longitude":-63.208042},{"LAYER":"Unknown Point Feature","SITE_ID":"MPC","Latitude":-16.53895623,"longitude":-68.09430698},{"LAYER":"Unknown Point Feature","SITE_ID":"MPI","Latitude":-15.314221,"longitude":-68.343035},{"LAYER":"Unknown Point Feature","SITE_ID":"MPK","Latitude":-17.599654,"longitude":-65.302943},{"LAYER":"Unknown Point Feature","SITE_ID":"MPR","Latitude":-17.371478,"longitude":-66.175244},{"LAYER":"Unknown Point Feature","SITE_ID":"MPRA","Latitude":-17.38657,"longitude":-66.15606},{"LAYER":"Unknown Point Feature","SITE_ID":"MPT","Latitude":-16.4898,"longitude":-68.163},{"LAYER":"Unknown Point Feature","SITE_ID":"MPZ","Latitude":-17.746947,"longitude":-63.060089},{"LAYER":"Unknown Point Feature","SITE_ID":"MQU","Latitude":-17.72153,"longitude":-63.04769},{"LAYER":"Unknown Point Feature","SITE_ID":"MRC","Latitude":-17.234389,"longitude":-66.532972},{"LAYER":"Unknown Point Feature","SITE_ID":"MRD","Latitude":-16.512639,"longitude":-68.117647},{"LAYER":"Unknown Point Feature","SITE_ID":"MRE","Latitude":-16.495656,"longitude":-68.215501},{"LAYER":"Unknown Point Feature","SITE_ID":"MRM","Latitude":-18.35382,"longitude":-64.32128},{"LAYER":"Unknown Point Feature","SITE_ID":"MRP","Latitude":-18.0501,"longitude":-63.061},{"LAYER":"Unknown Point Feature","SITE_ID":"MRS","Latitude":-16.477494,"longitude":-68.228478},{"LAYER":"Unknown Point Feature","SITE_ID":"MRTO","Latitude":-17.741413,"longitude":-63.076626},{"LAYER":"Unknown Point Feature","SITE_ID":"MSA","Latitude":-19.049782,"longitude":-65.243533},{"LAYER":"Unknown Point Feature","SITE_ID":"MSC_","Latitude":-16.493233,"longitude":-68.163017},{"LAYER":"Unknown Point Feature","SITE_ID":"MSI","Latitude":-16.562167,"longitude":-68.102},{"LAYER":"Unknown Point Feature","SITE_ID":"MT2","Latitude":-19.7959,"longitude":-63.955731},{"LAYER":"Unknown Point Feature","SITE_ID":"MTA","Latitude":-17.760556,"longitude":-63.159917},{"LAYER":"Unknown Point Feature","SITE_ID":"MTB","Latitude":-17.79974,"longitude":-63.22044},{"LAYER":"Unknown Point Feature","SITE_ID":"MTC","Latitude":-16.51525,"longitude":-68.128278},{"LAYER":"Unknown Point Feature","SITE_ID":"MTL","Latitude":-18.115926,"longitude":-64.215853},{"LAYER":"Unknown Point Feature","SITE_ID":"MTN","Latitude":-19.597667,"longitude":-65.747031},{"LAYER":"Unknown Point Feature","SITE_ID":"MTO","Latitude":-17.343829,"longitude":-63.237795},{"LAYER":"Unknown Point Feature","SITE_ID":"MTO2","Latitude":-17.349992,"longitude":-63.213361},{"LAYER":"Unknown Point Feature","SITE_ID":"MTR","Latitude":-17.832074,"longitude":-63.213708},{"LAYER":"Unknown Point Feature","SITE_ID":"MUR","Latitude":-19.585778,"longitude":-65.745469},{"LAYER":"Unknown Point Feature","SITE_ID":"MUT","Latitude":-16.50122,"longitude":-68.13222},{"LAYER":"Unknown Point Feature","SITE_ID":"MUYA","Latitude":-21.944795,"longitude":-63.650265},{"LAYER":"Unknown Point Feature","SITE_ID":"MVE","Latitude":-17.696966,"longitude":-63.077063},{"LAYER":"Unknown Point Feature","SITE_ID":"MXF","Latitude":-16.533145,"longitude":-68.146413},{"LAYER":"Unknown Point Feature","SITE_ID":"MYG","Latitude":-17.354556,"longitude":-66.170722},{"LAYER":"Unknown Point Feature","SITE_ID":"MYO","Latitude":-17.958837,"longitude":-67.095938},{"LAYER":"Unknown Point Feature","SITE_ID":"MYP","Latitude":-19.896012,"longitude":-63.75642},{"LAYER":"Unknown Point Feature","SITE_ID":"MZA","Latitude":-21.534601,"longitude":-64.745106},{"LAYER":"Unknown Point Feature","SITE_ID":"NAC","Latitude":-17.983556,"longitude":-67.117633},{"LAYER":"Unknown Point Feature","SITE_ID":"NALT","Latitude":-16.56171,"longitude":-68.23477},{"LAYER":"Unknown Point Feature","SITE_ID":"NAR","Latitude":-17.406292,"longitude":-63.20358},{"LAYER":"Unknown Point Feature","SITE_ID":"NAZ","Latitude":-16.93733,"longitude":-68.7644},{"LAYER":"Unknown Point Feature","SITE_ID":"NES","Latitude":-17.330249,"longitude":-63.248134},{"LAYER":"Unknown Point Feature","SITE_ID":"NEV","Latitude":-17.79,"longitude":-63.20287},{"LAYER":"Unknown Point Feature","SITE_ID":"NGR","Latitude":-17.393579,"longitude":-66.286123},{"LAYER":"Unknown Point Feature","SITE_ID":"NHO","Latitude":-17.310704,"longitude":-64.153186},{"LAYER":"Unknown Point Feature","SITE_ID":"NIV","Latitude":-16.605941,"longitude":-68.199422},{"LAYER":"Unknown Point Feature","SITE_ID":"NIV2","Latitude":-16.617992,"longitude":-68.200844},{"LAYER":"Unknown Point Feature","SITE_ID":"NLA","Latitude":-16.770558,"longitude":-62.578858},{"LAYER":"Unknown Point Feature","SITE_ID":"NM3","Latitude":-17.1635,"longitude":-63.2242},{"LAYER":"Unknown Point Feature","SITE_ID":"NNV","Latitude":-16.803523,"longitude":-62.757293},{"LAYER":"Unknown Point Feature","SITE_ID":"NOR","Latitude":-16.5161,"longitude":-68.1135},{"LAYER":"Unknown Point Feature","SITE_ID":"NOS","Latitude":-11.114806,"longitude":-66.091528},{"LAYER":"Unknown Point Feature","SITE_ID":"NOV","Latitude":-17.72817,"longitude":-63.15605},